[{"stop_id":"204","stop_code":"","stop_name":"Alfredo Correa de Andreis","stop_lat":"10.990443","stop_lon":"-74.795986","stop_url":"","location_type":"1","parent_station":"0","wheelchair_boarding":"1\r"},{"stop_id":"108","stop_code":"","stop_name":"Atl\u00e1ntico","stop_lat":"10.96881","stop_lon":"-74.790278","stop_url":"","location_type":"1","parent_station":"0","wheelchair_boarding":"1\r"},{"stop_id":"202","stop_code":"","stop_name":"Barrio Abajo","stop_lat":"10.986909","stop_lon":"-74.78352","stop_url":"","location_type":"1","parent_station":"0","wheelchair_boarding":"1\r"},{"stop_id":"104","stop_code":"","stop_name":"Buenos Aires","stop_lat":"10.941506","stop_lon":"-74.799586","stop_url":"","location_type":"1","parent_station":"0","wheelchair_boarding":"1\r"},{"stop_id":"109","stop_code":"","stop_name":"Chiquinquir\u00e1","stop_lat":"10.977192","stop_lon":"-74.787841","stop_url":"","location_type":"1","parent_station":"0","wheelchair_boarding":"1\r"},{"stop_id":"205","stop_code":"","stop_name":"Esthercita Forero","stop_lat":"10.992552","stop_lon":"-74.802488","stop_url":"","location_type":"1","parent_station":"0","wheelchair_boarding":"1\r"},{"stop_id":"103","stop_code":"","stop_name":"Joaqu\u00edn Barrios Polo","stop_lat":"10.932747","stop_lon":"-74.799234","stop_url":"","location_type":"1","parent_station":"0","wheelchair_boarding":"1\r"},{"stop_id":"206","stop_code":"","stop_name":"Joe Arroyo","stop_lat":"10.995042","stop_lon":"-74.807589","stop_url":"","location_type":"1","parent_station":"0","wheelchair_boarding":"1\r"},{"stop_id":"110","stop_code":"","stop_name":"La Arenosa","stop_lat":"10.982126","stop_lon":"-74.786456","stop_url":"","location_type":"1","parent_station":"0","wheelchair_boarding":"1\r"},{"stop_id":"203","stop_code":"","stop_name":"La Catedral","stop_lat":"10.988532","stop_lon":"-74.789154","stop_url":"","location_type":"1","parent_station":"0","wheelchair_boarding":"1\r"},{"stop_id":"106","stop_code":"","stop_name":"La Catorce","stop_lat":"10.954878","stop_lon":"-74.796465","stop_url":"","location_type":"1","parent_station":"0","wheelchair_boarding":"1\r"},{"stop_id":"105","stop_code":"","stop_name":"La Ocho","stop_lat":"10.946762","stop_lon":"-74.799751","stop_url":"","location_type":"1","parent_station":"0","wheelchair_boarding":"1\r"},{"stop_id":"107","stop_code":"","stop_name":"La Veintiuna","stop_lat":"10.96027","stop_lon":"-74.793845","stop_url":"","location_type":"1","parent_station":"0","wheelchair_boarding":"1\r"},{"stop_id":"101","stop_code":"","stop_name":"Pacho Gal\u00e1n","stop_lat":"10.915372","stop_lon":"-74.799099","stop_url":"","location_type":"1","parent_station":"0","wheelchair_boarding":"1\r"},{"stop_id":"201","stop_code":"","stop_name":"Parque Cultural del Caribe","stop_lat":"10.985848","stop_lon":"-74.777867","stop_url":"","location_type":"1","parent_station":"0","wheelchair_boarding":"1\r"},{"stop_id":"102","stop_code":"","stop_name":"Pedro Ramay\u00e1","stop_lat":"10.921246","stop_lon":"-74.799248","stop_url":"","location_type":"1","parent_station":"0","wheelchair_boarding":"1\r"},{"stop_id":"20300","stop_code":"","stop_name":"Portal de Soledad","stop_lat":"10.907516","stop_lon":"-74.800479","stop_url":"","location_type":"1","parent_station":"0","wheelchair_boarding":"1\r"},{"stop_id":"20563","stop_code":"","stop_name":"Carrera 40 No. 35 - 25","stop_lat":"10.979358","stop_lon":"-74.779583","stop_url":"","location_type":"0","parent_station":"0","wheelchair_boarding":"\r","route_id":"3101","route_short_name":"A0-1"},{"stop_id":"20562","stop_code":"","stop_name":"Carrera 40 No. 36 - 25","stop_lat":"10.97969","stop_lon":"-74.780415","stop_url":"","location_type":"0","parent_station":"0","wheelchair_boarding":"\r","route_id":"3101","route_short_name":"A0-1"},{"stop_id":"20561","stop_code":"","stop_name":"Carrera 40 No. 38 - 25","stop_lat":"10.980025","stop_lon":"-74.781447","stop_url":"","location_type":"0","parent_station":"0","wheelchair_boarding":"\r","route_id":"3101","route_short_name":"A0-1"},{"stop_id":"20051","stop_code":"","stop_name":"Carrera 40 No. 40 - 37","stop_lat":"10.980393","stop_lon":"-74.78266","stop_url":"","location_type":"0","parent_station":"0","wheelchair_boarding":"\r","route_id":"3101","route_short_name":"A0-1"},{"stop_id":"20050","stop_code":"","stop_name":"Carrera 40 No. 43 -07","stop_lat":"10.980727","stop_lon":"-74.784815","stop_url":"","location_type":"0","parent_station":"0","wheelchair_boarding":"\r","route_id":"3101","route_short_name":"A0-1"},{"stop_id":"20675","stop_code":"","stop_name":"Carrera 41 No. 44 - 60","stop_lat":"10.981342","stop_lon":"-74.786233","stop_url":"","location_type":"0","parent_station":"0","wheelchair_boarding":"\r","route_id":"3101","route_short_name":"A0-1"},{"stop_id":"20564","stop_code":"","stop_name":"Carrera 43 No. 35 - 38","stop_lat":"10.981448","stop_lon":"-74.779293","stop_url":"","location_type":"0","parent_station":"0","wheelchair_boarding":"\r","route_id":"3101","route_short_name":"A0-1"},{"stop_id":"20565","stop_code":"","stop_name":"Carrera 43 No. 36 - 30","stop_lat":"10.98163","stop_lon":"-74.78013","stop_url":"","location_type":"0","parent_station":"0","wheelchair_boarding":"\r","route_id":"3101","route_short_name":"A0-1"},{"stop_id":"10108","stop_code":"","stop_name":"Carrera 43 No. 39 - 26","stop_lat":"10.98196","stop_lon":"-74.781695","stop_url":"","location_type":"0","parent_station":"0","wheelchair_boarding":"\r","route_id":"3101","route_short_name":"A0-1"},{"stop_id":"10109","stop_code":"","stop_name":"Carrera 43 No. 43 - 16","stop_lat":"10.982552","stop_lon":"-74.784433","stop_url":"","location_type":"0","parent_station":"0","wheelchair_boarding":"\r","route_id":"3101","route_short_name":"A0-1"},{"stop_id":"11211","stop_code":"","stop_name":"Calle 41 No. 6B - 32","stop_lat":"10.94187","stop_lon":"-74.795853","stop_url":"","location_type":"0","parent_station":"0","wheelchair_boarding":"\r","route_id":"3112","route_short_name":"A1-2"},{"stop_id":"11212","stop_code":"","stop_name":"Calle 41 No. 7D - 04","stop_lat":"10.943802","stop_lon":"-74.79617","stop_url":"","location_type":"0","parent_station":"0","wheelchair_boarding":"\r","route_id":"3112","route_short_name":"A1-2"},{"stop_id":"20528","stop_code":"","stop_name":"Carrera 6B con Calle 31 Nacional de Chocolate","stop_lat":"10.94294","stop_lon":"-74.785247","stop_url":"","location_type":"0","parent_station":"0","wheelchair_boarding":"\r","route_id":"3112","route_short_name":"A1-2"},{"stop_id":"11208","stop_code":"","stop_name":"Carrera 6B Con Calle 34C Esq","stop_lat":"10.942427","stop_lon":"-74.788677","stop_url":"","location_type":"0","parent_station":"0","wheelchair_boarding":"\r","route_id":"3112","route_short_name":"A1-2"},{"stop_id":"20530","stop_code":"","stop_name":"Carrera 6B Con Calle 36B","stop_lat":"10.942057","stop_lon":"-74.791518","stop_url":"","location_type":"0","parent_station":"0","wheelchair_boarding":"\r","route_id":"3112","route_short_name":"A1-2"},{"stop_id":"20529","stop_code":"","stop_name":"Carrera 6B No. 33 - 76","stop_lat":"10.942972","stop_lon":"-74.786828","stop_url":"","location_type":"0","parent_station":"0","wheelchair_boarding":"\r","route_id":"3112","route_short_name":"A1-2"},{"stop_id":"20531","stop_code":"","stop_name":"Carrera 6B No. 38B - 02","stop_lat":"10.941757","stop_lon":"-74.793893","stop_url":"","location_type":"0","parent_station":"0","wheelchair_boarding":"\r","route_id":"3112","route_short_name":"A1-2"},{"stop_id":"20526","stop_code":"","stop_name":"Carrera 8 Con Calle 31","stop_lat":"10.94677","stop_lon":"-74.785825","stop_url":"","location_type":"0","parent_station":"0","wheelchair_boarding":"\r","route_id":"3112","route_short_name":"A1-2"},{"stop_id":"20525","stop_code":"","stop_name":"Carrera 8 Con Calle 34","stop_lat":"10.946428","stop_lon":"-74.788717","stop_url":"","location_type":"0","parent_station":"0","wheelchair_boarding":"\r","route_id":"3112","route_short_name":"A1-2"},{"stop_id":"11205","stop_code":"","stop_name":"Carrera 8 Con Calle 35A Esq","stop_lat":"10.94619","stop_lon":"-74.790928","stop_url":"","location_type":"0","parent_station":"0","wheelchair_boarding":"\r","route_id":"3112","route_short_name":"A1-2"},{"stop_id":"11203","stop_code":"","stop_name":"Carrera 8 Con Calle 41 Esq","stop_lat":"10.946113","stop_lon":"-74.795858","stop_url":"","location_type":"0","parent_station":"0","wheelchair_boarding":"\r","route_id":"3112","route_short_name":"A1-2"},{"stop_id":"11214","stop_code":"","stop_name":"Carrera 8 con Calle 42B Esq","stop_lat":"10.946242","stop_lon":"-74.797833","stop_url":"","location_type":"0","parent_station":"0","wheelchair_boarding":"\r","route_id":"3112","route_short_name":"A1-2"},{"stop_id":"11204","stop_code":"","stop_name":"Carrera 8 No. 36B - 125","stop_lat":"10.945887","stop_lon":"-74.793093","stop_url":"","location_type":"0","parent_station":"0","wheelchair_boarding":"\r","route_id":"3112","route_short_name":"A1-2"},{"stop_id":"11213","stop_code":"","stop_name":"Carrera 8 No. 40 - 32","stop_lat":"10.946245","stop_lon":"-74.795742","stop_url":"","location_type":"0","parent_station":"0","wheelchair_boarding":"\r","route_id":"3112","route_short_name":"A1-2"},{"stop_id":"11202","stop_code":"","stop_name":"Carrera 8 No. 42 - 127","stop_lat":"10.946107","stop_lon":"-74.798475","stop_url":"","location_type":"0","parent_station":"0","wheelchair_boarding":"\r","route_id":"3112","route_short_name":"A1-2"},{"stop_id":"20676","stop_code":"","stop_name":"Carrera 8 No. 44 - 34","stop_lat":"10.94623","stop_lon":"-74.799237","stop_url":"","location_type":"0","parent_station":"0","wheelchair_boarding":"\r","route_id":"3112","route_short_name":"A1-2"},{"stop_id":"20527","stop_code":"","stop_name":"Centro Comercial Panorama","stop_lat":"10.944842","stop_lon":"-74.784343","stop_url":"","location_type":"0","parent_station":"0","wheelchair_boarding":"\r","route_id":"3112","route_short_name":"A1-2"},{"stop_id":"11315","stop_code":"","stop_name":"Calle 37C Carrera 2","stop_lat":"10.93562","stop_lon":"-74.790987","stop_url":"","location_type":"0","parent_station":"0","wheelchair_boarding":"\r","route_id":"3113","route_short_name":"A1-3"},{"stop_id":"11316","stop_code":"","stop_name":"Calle 37C Con Carrera 1H Esq","stop_lat":"10.932828","stop_lon":"-74.791708","stop_url":"","location_type":"0","parent_station":"0","wheelchair_boarding":"\r","route_id":"3113","route_short_name":"A1-3"},{"stop_id":"11305","stop_code":"","stop_name":"Calle 37C Con Carrera 2 Esq","stop_lat":"10.934685","stop_lon":"-74.791298","stop_url":"","location_type":"0","parent_station":"0","wheelchair_boarding":"\r","route_id":"3113","route_short_name":"A1-3"},{"stop_id":"11306","stop_code":"","stop_name":"Calle 37C Con Carrera 3A","stop_lat":"10.937258","stop_lon":"-74.791567","stop_url":"","location_type":"0","parent_station":"0","wheelchair_boarding":"\r","route_id":"3113","route_short_name":"A1-3"},{"stop_id":"20572","stop_code":"","stop_name":"Calle 37C No. 3D - 04","stop_lat":"10.938568","stop_lon":"-74.791708","stop_url":"","location_type":"0","parent_station":"0","wheelchair_boarding":"\r","route_id":"3113","route_short_name":"A1-3"},{"stop_id":"20573","stop_code":"","stop_name":"Carrera 1H Con Calle 37F Esq","stop_lat":"10.933207","stop_lon":"-74.793172","stop_url":"","location_type":"0","parent_station":"0","wheelchair_boarding":"\r","route_id":"3113","route_short_name":"A1-3"},{"stop_id":"11317","stop_code":"","stop_name":"Carrera 1H Con Calle 41B Esq","stop_lat":"10.933708","stop_lon":"-74.79478","stop_url":"","location_type":"0","parent_station":"0","wheelchair_boarding":"\r","route_id":"3113","route_short_name":"A1-3"},{"stop_id":"11319","stop_code":"","stop_name":"Carrera 1H Con Calle 45 Esq","stop_lat":"10.932732","stop_lon":"-74.798927","stop_url":"","location_type":"0","parent_station":"0","wheelchair_boarding":"\r","route_id":"3113","route_short_name":"A1-3"},{"stop_id":"11318","stop_code":"","stop_name":"Carrera 1H No. 41B - 236","stop_lat":"10.933242","stop_lon":"-74.796837","stop_url":"","location_type":"0","parent_station":"0","wheelchair_boarding":"\r","route_id":"3113","route_short_name":"A1-3"},{"stop_id":"11304","stop_code":"","stop_name":"Carrera 2 Calle 37E - 23","stop_lat":"10.934828","stop_lon":"-74.792567","stop_url":"","location_type":"0","parent_station":"0","wheelchair_boarding":"\r","route_id":"3113","route_short_name":"A1-3"},{"stop_id":"11311","stop_code":"","stop_name":"Carrera 2 Con Calle 30","stop_lat":"10.937722","stop_lon":"-74.782895","stop_url":"","location_type":"0","parent_station":"0","wheelchair_boarding":"\r","route_id":"3113","route_short_name":"A1-3"},{"stop_id":"11312","stop_code":"","stop_name":"Carrera 2 Con Calle 33A Esq","stop_lat":"10.936585","stop_lon":"-74.78478","stop_url":"","location_type":"0","parent_station":"0","wheelchair_boarding":"\r","route_id":"3113","route_short_name":"A1-3"},{"stop_id":"11313","stop_code":"","stop_name":"Carrera 2 Con Calle 34 Esq","stop_lat":"10.935955","stop_lon":"-74.786967","stop_url":"","location_type":"0","parent_station":"0","wheelchair_boarding":"\r","route_id":"3113","route_short_name":"A1-3"},{"stop_id":"11314","stop_code":"","stop_name":"Carrera 2 Con Calle 35A Esq","stop_lat":"10.935437","stop_lon":"-74.789325","stop_url":"","location_type":"0","parent_station":"0","wheelchair_boarding":"\r","route_id":"3113","route_short_name":"A1-3"},{"stop_id":"11303","stop_code":"","stop_name":"Carrera 2 Con Calle 39 Esq","stop_lat":"10.934873","stop_lon":"-74.794397","stop_url":"","location_type":"0","parent_station":"0","wheelchair_boarding":"\r","route_id":"3113","route_short_name":"A1-3"},{"stop_id":"11302","stop_code":"","stop_name":"Carrera 2B No. 42A-05","stop_lat":"10.934503","stop_lon":"-74.797133","stop_url":"","location_type":"0","parent_station":"0","wheelchair_boarding":"\r","route_id":"3113","route_short_name":"A1-3"},{"stop_id":"11301","stop_code":"","stop_name":"Carrera 2E No. 44B - 13","stop_lat":"10.934835","stop_lon":"-74.798927","stop_url":"","location_type":"0","parent_station":"0","wheelchair_boarding":"\r","route_id":"3113","route_short_name":"A1-3"},{"stop_id":"11310","stop_code":"","stop_name":"Carrera 4 Con Calle 30","stop_lat":"10.939838","stop_lon":"-74.783297","stop_url":"","location_type":"0","parent_station":"0","wheelchair_boarding":"\r","route_id":"3113","route_short_name":"A1-3"},{"stop_id":"11320","stop_code":"","stop_name":"Carrera 4 Con Calle 31-88","stop_lat":"10.939613","stop_lon":"-74.786048","stop_url":"","location_type":"0","parent_station":"0","wheelchair_boarding":"\r","route_id":"3113","route_short_name":"A1-3"},{"stop_id":"11308","stop_code":"","stop_name":"Carrera 4 Con Calle 34B Esq","stop_lat":"10.939295","stop_lon":"-74.788622","stop_url":"","location_type":"0","parent_station":"0","wheelchair_boarding":"\r","route_id":"3113","route_short_name":"A1-3"},{"stop_id":"11307","stop_code":"","stop_name":"Carrera 4 Con Calle 36 Esq","stop_lat":"10.938947","stop_lon":"-74.790488","stop_url":"","location_type":"0","parent_station":"0","wheelchair_boarding":"\r","route_id":"3113","route_short_name":"A1-3"},{"stop_id":"2134","stop_code":"","stop_name":"Av. Las Torres  Colegio Olga Castellano de Levolo","stop_lat":"10.930985","stop_lon":"-74.787303","stop_url":"","location_type":"0","parent_station":"0","wheelchair_boarding":"\r","route_id":"921","route_short_name":"A2-1"},{"stop_id":"20577","stop_code":"","stop_name":"Avenida Circunvalar oreja del puente","stop_lat":"10.932307","stop_lon":"-74.782143","stop_url":"","location_type":"0","parent_station":"0","wheelchair_boarding":"\r","route_id":"921","route_short_name":"A2-1"},{"stop_id":"2136","stop_code":"","stop_name":"Avenida las Torres  56A - 12","stop_lat":"10.929528","stop_lon":"-74.793657","stop_url":"","location_type":"0","parent_station":"0","wheelchair_boarding":"\r","route_id":"921","route_short_name":"A2-1"},{"stop_id":"2137","stop_code":"","stop_name":"Avenida las Torres 41C - 92","stop_lat":"10.929863","stop_lon":"-74.796545","stop_url":"","location_type":"0","parent_station":"0","wheelchair_boarding":"\r","route_id":"921","route_short_name":"A2-1"},{"stop_id":"2138","stop_code":"","stop_name":"Avenida las Torres 43 - 76","stop_lat":"10.930047","stop_lon":"-74.798235","stop_url":"","location_type":"0","parent_station":"0","wheelchair_boarding":"\r","route_id":"921","route_short_name":"A2-1"},{"stop_id":"2107","stop_code":"","stop_name":"Avenida las Torres Calle 44B","stop_lat":"10.929922","stop_lon":"-74.798772","stop_url":"","location_type":"0","parent_station":"0","wheelchair_boarding":"\r","route_id":"921","route_short_name":"A2-1"},{"stop_id":"2139","stop_code":"","stop_name":"Avenida Las Torres Calle 45","stop_lat":"10.930197","stop_lon":"-74.799847","stop_url":"","location_type":"0","parent_station":"0","wheelchair_boarding":"\r","route_id":"921","route_short_name":"A2-1"},{"stop_id":"2135","stop_code":"","stop_name":"Avenida las Torres Calle 54","stop_lat":"10.929845","stop_lon":"-74.790683","stop_url":"","location_type":"0","parent_station":"0","wheelchair_boarding":"\r","route_id":"921","route_short_name":"A2-1"},{"stop_id":"2133","stop_code":"","stop_name":"Avenida las Torres Circunvalar Iglesia","stop_lat":"10.931798","stop_lon":"-74.784507","stop_url":"","location_type":"0","parent_station":"0","wheelchair_boarding":"\r","route_id":"921","route_short_name":"A2-1"},{"stop_id":"2108","stop_code":"","stop_name":"Avenida las Torres con Calle 54 D","stop_lat":"10.929482","stop_lon":"-74.791593","stop_url":"","location_type":"0","parent_station":"0","wheelchair_boarding":"\r","route_id":"921","route_short_name":"A2-1"},{"stop_id":"2104","stop_code":"","stop_name":"Avenida las Torres Frente Nom. 45H - 42","stop_lat":"10.930277","stop_lon":"-74.802065","stop_url":"","location_type":"0","parent_station":"0","wheelchair_boarding":"\r","route_id":"921","route_short_name":"A2-1"},{"stop_id":"2110","stop_code":"","stop_name":"Avenida las Torres Nom 44 - 33","stop_lat":"10.930925","stop_lon":"-74.78645","stop_url":"","location_type":"0","parent_station":"0","wheelchair_boarding":"\r","route_id":"921","route_short_name":"A2-1"},{"stop_id":"2105","stop_code":"","stop_name":"Avenida las Torres Nom. 41C - 93","stop_lat":"10.929695","stop_lon":"-74.796522","stop_url":"","location_type":"0","parent_station":"0","wheelchair_boarding":"\r","route_id":"921","route_short_name":"A2-1"},{"stop_id":"2109","stop_code":"","stop_name":"Avenida las Torres Nom. 48 - 25","stop_lat":"10.930147","stop_lon":"-74.78906","stop_url":"","location_type":"0","parent_station":"0","wheelchair_boarding":"\r","route_id":"921","route_short_name":"A2-1"},{"stop_id":"2106","stop_code":"","stop_name":"Avenida las Torres Nom. 56A - 93","stop_lat":"10.929483","stop_lon":"-74.79439","stop_url":"","location_type":"0","parent_station":"0","wheelchair_boarding":"\r","route_id":"921","route_short_name":"A2-1"},{"stop_id":"2119","stop_code":"","stop_name":"Calle 18 Con Carrera 27","stop_lat":"10.924445","stop_lon":"-74.763768","stop_url":"","location_type":"0","parent_station":"0","wheelchair_boarding":"\r","route_id":"921","route_short_name":"A2-1"},{"stop_id":"20457","stop_code":"","stop_name":"Calle 18 Con Carrera 30","stop_lat":"10.926713","stop_lon":"-74.764153","stop_url":"","location_type":"0","parent_station":"0","wheelchair_boarding":"\r","route_id":"921","route_short_name":"A2-1"},{"stop_id":"20394","stop_code":"","stop_name":"Calle 18 Con Carrera 36 A Esq","stop_lat":"10.931152","stop_lon":"-74.764512","stop_url":"","location_type":"0","parent_station":"0","wheelchair_boarding":"\r","route_id":"921","route_short_name":"A2-1"},{"stop_id":"2122","stop_code":"","stop_name":"Calle 18 No. 21 - 37","stop_lat":"10.917542","stop_lon":"-74.765113","stop_url":"","location_type":"0","parent_station":"0","wheelchair_boarding":"\r","route_id":"921","route_short_name":"A2-1"},{"stop_id":"2121","stop_code":"","stop_name":"Calle 18 No. 23 - 37","stop_lat":"10.919673","stop_lon":"-74.764115","stop_url":"","location_type":"0","parent_station":"0","wheelchair_boarding":"\r","route_id":"921","route_short_name":"A2-1"},{"stop_id":"2120","stop_code":"","stop_name":"Calle 18 No. 25A - 16","stop_lat":"10.92153","stop_lon":"-74.763537","stop_url":"","location_type":"0","parent_station":"0","wheelchair_boarding":"\r","route_id":"921","route_short_name":"A2-1"},{"stop_id":"20395","stop_code":"","stop_name":"Calle 18 No. 32 - 59","stop_lat":"10.92868","stop_lon":"-74.76435","stop_url":"","location_type":"0","parent_station":"0","wheelchair_boarding":"\r","route_id":"921","route_short_name":"A2-1"},{"stop_id":"20585","stop_code":"","stop_name":"Calle 19 Con Carrera 1E","stop_lat":"10.936397","stop_lon":"-74.780392","stop_url":"","location_type":"0","parent_station":"0","wheelchair_boarding":"\r","route_id":"921","route_short_name":"A2-1"},{"stop_id":"2124","stop_code":"","stop_name":"Calle 23 Con Carrera 19A Esq.","stop_lat":"10.917762","stop_lon":"-74.768873","stop_url":"","location_type":"0","parent_station":"0","wheelchair_boarding":"\r","route_id":"921","route_short_name":"A2-1"},{"stop_id":"2125","stop_code":"","stop_name":"Calle 23 No. 22 - 36","stop_lat":"10.920545","stop_lon":"-74.768107","stop_url":"","location_type":"0","parent_station":"0","wheelchair_boarding":"\r","route_id":"921","route_short_name":"A2-1"},{"stop_id":"2126","stop_code":"","stop_name":"Calle 23 No. 25 - 40","stop_lat":"10.922783","stop_lon":"-74.767398","stop_url":"","location_type":"0","parent_station":"0","wheelchair_boarding":"\r","route_id":"921","route_short_name":"A2-1"},{"stop_id":"20456","stop_code":"","stop_name":"Calle 24 con Carrera 31","stop_lat":"10.926987","stop_lon":"-74.768267","stop_url":"","location_type":"0","parent_station":"0","wheelchair_boarding":"\r","route_id":"921","route_short_name":"A2-1"},{"stop_id":"20389","stop_code":"","stop_name":"Calle 24 Con Carrera 33A Esq","stop_lat":"10.928907","stop_lon":"-74.767977","stop_url":"","location_type":"0","parent_station":"0","wheelchair_boarding":"\r","route_id":"921","route_short_name":"A2-1"},{"stop_id":"20391","stop_code":"","stop_name":"Calle 26 Con Carrera 38 Esq","stop_lat":"10.93266","stop_lon":"-74.770463","stop_url":"","location_type":"0","parent_station":"0","wheelchair_boarding":"\r","route_id":"921","route_short_name":"A2-1"},{"stop_id":"20584","stop_code":"","stop_name":"Calle 27C Con Carrera 23 Esq.","stop_lat":"10.929158","stop_lon":"-74.773778","stop_url":"","location_type":"0","parent_station":"0","wheelchair_boarding":"\r","route_id":"921","route_short_name":"A2-1"},{"stop_id":"20583","stop_code":"","stop_name":"Calle 27C Con Carrera 25","stop_lat":"10.931608","stop_lon":"-74.773322","stop_url":"","location_type":"0","parent_station":"0","wheelchair_boarding":"\r","route_id":"921","route_short_name":"A2-1"},{"stop_id":"20582","stop_code":"","stop_name":"Calle 27C Con Carrera 39","stop_lat":"10.933992","stop_lon":"-74.772872","stop_url":"","location_type":"0","parent_station":"0","wheelchair_boarding":"\r","route_id":"921","route_short_name":"A2-1"},{"stop_id":"2131","stop_code":"","stop_name":"Calle 30 Entrada al Tucan","stop_lat":"10.930023","stop_lon":"-74.779742","stop_url":"","location_type":"0","parent_station":"0","wheelchair_boarding":"\r","route_id":"921","route_short_name":"A2-1"},{"stop_id":"2132","stop_code":"","stop_name":"Calle 30 INEM","stop_lat":"10.93168","stop_lon":"-74.78023","stop_url":"","location_type":"0","parent_station":"0","wheelchair_boarding":"\r","route_id":"921","route_short_name":"A2-1"},{"stop_id":"2102","stop_code":"","stop_name":"Calle 45D Frente Nom 1 - 101","stop_lat":"10.931347","stop_lon":"-74.800533","stop_url":"","location_type":"0","parent_station":"0","wheelchair_boarding":"\r","route_id":"921","route_short_name":"A2-1"},{"stop_id":"2123","stop_code":"","stop_name":"Carrera 19 Frente Nom. 20 - 19","stop_lat":"10.916582","stop_lon":"-74.7671","stop_url":"","location_type":"0","parent_station":"0","wheelchair_boarding":"\r","route_id":"921","route_short_name":"A2-1"},{"stop_id":"16616","stop_code":"","stop_name":"Carrera 1E Con Calle 45 Metrocentro","stop_lat":"10.931807","stop_lon":"-74.799743","stop_url":"","location_type":"0","parent_station":"0","wheelchair_boarding":"\r","route_id":"921","route_short_name":"A2-1"},{"stop_id":"2103","stop_code":"","stop_name":"Carrera 1E Frente Bloque 159","stop_lat":"10.931865","stop_lon":"-74.802072","stop_url":"","location_type":"0","parent_station":"0","wheelchair_boarding":"\r","route_id":"921","route_short_name":"A2-1"},{"stop_id":"2141","stop_code":"","stop_name":"Carrera 1E No. 45H - 41","stop_lat":"10.93184","stop_lon":"-74.801897","stop_url":"","location_type":"0","parent_station":"0","wheelchair_boarding":"\r","route_id":"921","route_short_name":"A2-1"},{"stop_id":"2127","stop_code":"","stop_name":"Carrera 26 No. 24A - 32","stop_lat":"10.923965","stop_lon":"-74.768765","stop_url":"","location_type":"0","parent_station":"0","wheelchair_boarding":"\r","route_id":"921","route_short_name":"A2-1"},{"stop_id":"2129","stop_code":"","stop_name":"Carrera 30 Con 29C  Esq.","stop_lat":"10.927883","stop_lon":"-74.775767","stop_url":"","location_type":"0","parent_station":"0","wheelchair_boarding":"\r","route_id":"921","route_short_name":"A2-1"},{"stop_id":"2145","stop_code":"","stop_name":"Carrera 30 Con Calle 25","stop_lat":"10.926667","stop_lon":"-74.768853","stop_url":"","location_type":"0","parent_station":"0","wheelchair_boarding":"\r","route_id":"921","route_short_name":"A2-1"},{"stop_id":"2115","stop_code":"","stop_name":"Carrera 30 Con Calle 27","stop_lat":"10.927622","stop_lon":"-74.772903","stop_url":"","location_type":"0","parent_station":"0","wheelchair_boarding":"\r","route_id":"921","route_short_name":"A2-1"},{"stop_id":"2128","stop_code":"","stop_name":"Carrera 30 Con Calle 27 Esq.","stop_lat":"10.927552","stop_lon":"-74.772697","stop_url":"","location_type":"0","parent_station":"0","wheelchair_boarding":"\r","route_id":"921","route_short_name":"A2-1"},{"stop_id":"2130","stop_code":"","stop_name":"Carrera 30 Con Calle 30","stop_lat":"10.92744","stop_lon":"-74.77775","stop_url":"","location_type":"0","parent_station":"0","wheelchair_boarding":"\r","route_id":"921","route_short_name":"A2-1"},{"stop_id":"2116","stop_code":"","stop_name":"Carrera 30 Nom 24 - 151","stop_lat":"10.926817","stop_lon":"-74.76981","stop_url":"","location_type":"0","parent_station":"0","wheelchair_boarding":"\r","route_id":"921","route_short_name":"A2-1"},{"stop_id":"20390","stop_code":"","stop_name":"Carrera 35 Con Calle 25B Esq","stop_lat":"10.92987","stop_lon":"-74.770465","stop_url":"","location_type":"0","parent_station":"0","wheelchair_boarding":"\r","route_id":"921","route_short_name":"A2-1"},{"stop_id":"20578","stop_code":"","stop_name":"Carrera 39 C No. 18H - 17","stop_lat":"10.937393","stop_lon":"-74.779025","stop_url":"","location_type":"0","parent_station":"0","wheelchair_boarding":"\r","route_id":"921","route_short_name":"A2-1"},{"stop_id":"20586","stop_code":"","stop_name":"Carrera 39 Con Calle 21B","stop_lat":"10.934385","stop_lon":"-74.766965","stop_url":"","location_type":"0","parent_station":"0","wheelchair_boarding":"\r","route_id":"921","route_short_name":"A2-1"},{"stop_id":"20392","stop_code":"","stop_name":"Carrera 39 Con Calle 24A Esq Col. Sagrado Corazon","stop_lat":"10.934168","stop_lon":"-74.768603","stop_url":"","location_type":"0","parent_station":"0","wheelchair_boarding":"\r","route_id":"921","route_short_name":"A2-1"},{"stop_id":"20581","stop_code":"","stop_name":"Carrera 39C No. 27C - 13","stop_lat":"10.935152","stop_lon":"-74.773565","stop_url":"","location_type":"0","parent_station":"0","wheelchair_boarding":"\r","route_id":"921","route_short_name":"A2-1"},{"stop_id":"20580","stop_code":"","stop_name":"Carrera 39C No. 28 - 109","stop_lat":"10.9359","stop_lon":"-74.775368","stop_url":"","location_type":"0","parent_station":"0","wheelchair_boarding":"\r","route_id":"921","route_short_name":"A2-1"},{"stop_id":"20579","stop_code":"","stop_name":"Carrera 39C \u00a0Con Calle 32","stop_lat":"10.936543","stop_lon":"-74.77692","stop_url":"","location_type":"0","parent_station":"0","wheelchair_boarding":"\r","route_id":"921","route_short_name":"A2-1"},{"stop_id":"20393","stop_code":"","stop_name":"Entrada conjunto residencial los Mangos","stop_lat":"10.934167","stop_lon":"-74.765282","stop_url":"","location_type":"0","parent_station":"0","wheelchair_boarding":"\r","route_id":"921","route_short_name":"A2-1"},{"stop_id":"16601","stop_code":"","stop_name":"Tv 14 sur Con Calle 45","stop_lat":"10.93025","stop_lon":"-74.799877","stop_url":"","location_type":"0","parent_station":"0","wheelchair_boarding":"\r","route_id":"921","route_short_name":"A2-1"},{"stop_id":"16602","stop_code":"","stop_name":"Tv 14 sur Con Calle 45H","stop_lat":"10.93041","stop_lon":"-74.801802","stop_url":"","location_type":"0","parent_station":"0","wheelchair_boarding":"\r","route_id":"921","route_short_name":"A2-1"},{"stop_id":"20682","stop_code":"","stop_name":"Calle 43 Con Carrera 31","stop_lat":"10.925265","stop_lon":"-74.784267","stop_url":"","location_type":"0","parent_station":"0","wheelchair_boarding":"\r","route_id":"3130","route_short_name":"A3-1"},{"stop_id":"20685","stop_code":"","stop_name":"Calle 43 Con Carrera 32","stop_lat":"10.925545","stop_lon":"-74.784264","stop_url":"","location_type":"0","parent_station":"0","wheelchair_boarding":"\r","route_id":"3130","route_short_name":"A3-1"},{"stop_id":"20684","stop_code":"","stop_name":"Calle 43 Con Carrera 37 lado occidental","stop_lat":"10.927029","stop_lon":"-74.784264","stop_url":"","location_type":"0","parent_station":"0","wheelchair_boarding":"\r","route_id":"3130","route_short_name":"A3-1"},{"stop_id":"20683","stop_code":"","stop_name":"Calle 43 Con Carrera 37 lado oriental","stop_lat":"10.927214","stop_lon":"-74.784229","stop_url":"","location_type":"0","parent_station":"0","wheelchair_boarding":"\r","route_id":"3130","route_short_name":"A3-1"},{"stop_id":"20656","stop_code":"","stop_name":"Calle 45 Carrera 25B - 70","stop_lat":"10.922297","stop_lon":"-74.787265","stop_url":"","location_type":"0","parent_station":"0","wheelchair_boarding":"\r","route_id":"3130","route_short_name":"A3-1"},{"stop_id":"20666","stop_code":"","stop_name":"Calle 45 con Carrera 24B Esq","stop_lat":"10.921752","stop_lon":"-74.78763","stop_url":"","location_type":"0","parent_station":"0","wheelchair_boarding":"\r","route_id":"3130","route_short_name":"A3-1"},{"stop_id":"20680","stop_code":"","stop_name":"Calle 45 Con Carrera 25 Esq.","stop_lat":"10.922547","stop_lon":"-74.787095","stop_url":"","location_type":"0","parent_station":"0","wheelchair_boarding":"\r","route_id":"3130","route_short_name":"A3-1"},{"stop_id":"20681","stop_code":"","stop_name":"Calle 45 Con Carrera 26A","stop_lat":"10.923683","stop_lon":"-74.7863","stop_url":"","location_type":"0","parent_station":"0","wheelchair_boarding":"\r","route_id":"3130","route_short_name":"A3-1"},{"stop_id":"20662","stop_code":"","stop_name":"Calle 56 Carrera 20 Soledad","stop_lat":"10.918265","stop_lon":"-74.793335","stop_url":"","location_type":"0","parent_station":"0","wheelchair_boarding":"\r","route_id":"3130","route_short_name":"A3-1"},{"stop_id":"20661","stop_code":"","stop_name":"Calle 56 Carrera 22C","stop_lat":"10.919863","stop_lon":"-74.793343","stop_url":"","location_type":"0","parent_station":"0","wheelchair_boarding":"\r","route_id":"3130","route_short_name":"A3-1"},{"stop_id":"20663","stop_code":"","stop_name":"Carrera 18 Calle 56 - 46","stop_lat":"10.917155","stop_lon":"-74.79393","stop_url":"","location_type":"0","parent_station":"0","wheelchair_boarding":"\r","route_id":"3130","route_short_name":"A3-1"},{"stop_id":"20664","stop_code":"","stop_name":"Carrera 18 No 59 - 18","stop_lat":"10.917143","stop_lon":"-74.796177","stop_url":"","location_type":"0","parent_station":"0","wheelchair_boarding":"\r","route_id":"3130","route_short_name":"A3-1"},{"stop_id":"20665","stop_code":"","stop_name":"Carrera 18 No. 62 - 10","stop_lat":"10.917132","stop_lon":"-74.798233","stop_url":"","location_type":"0","parent_station":"0","wheelchair_boarding":"\r","route_id":"3130","route_short_name":"A3-1"},{"stop_id":"20658","stop_code":"","stop_name":"Carrera 24 Calle 44 Norte","stop_lat":"10.921452","stop_lon":"-74.789715","stop_url":"","location_type":"0","parent_station":"0","wheelchair_boarding":"\r","route_id":"3130","route_short_name":"A3-1"},{"stop_id":"20657","stop_code":"","stop_name":"Carrera 24 Calle 45A - 20","stop_lat":"10.921298","stop_lon":"-74.78853","stop_url":"","location_type":"0","parent_station":"0","wheelchair_boarding":"\r","route_id":"3130","route_short_name":"A3-1"},{"stop_id":"20659","stop_code":"","stop_name":"Carrera 24 Calle 53 Esq Soledad","stop_lat":"10.92151","stop_lon":"-74.790858","stop_url":"","location_type":"0","parent_station":"0","wheelchair_boarding":"\r","route_id":"3130","route_short_name":"A3-1"},{"stop_id":"20660","stop_code":"","stop_name":"Carrera 24 Calle 54C","stop_lat":"10.921133","stop_lon":"-74.79225","stop_url":"","location_type":"0","parent_station":"0","wheelchair_boarding":"\r","route_id":"3130","route_short_name":"A3-1"},{"stop_id":"20655","stop_code":"","stop_name":"Carrera 24 Con Calle 45A1 - 03","stop_lat":"10.921263","stop_lon":"-74.788557","stop_url":"","location_type":"0","parent_station":"0","wheelchair_boarding":"\r","route_id":"3130","route_short_name":"A3-1"},{"stop_id":"20654","stop_code":"","stop_name":"Carrera 24 Con Calle 48","stop_lat":"10.92143","stop_lon":"-74.789708","stop_url":"","location_type":"0","parent_station":"0","wheelchair_boarding":"\r","route_id":"3130","route_short_name":"A3-1"},{"stop_id":"20653","stop_code":"","stop_name":"Carrera 24 Con Calle 54 Soledad","stop_lat":"10.921297","stop_lon":"-74.791322","stop_url":"","location_type":"0","parent_station":"0","wheelchair_boarding":"\r","route_id":"3130","route_short_name":"A3-1"},{"stop_id":"20652","stop_code":"","stop_name":"Carrera 24 Con Calle 55B","stop_lat":"10.920945","stop_lon":"-74.793112","stop_url":"","location_type":"0","parent_station":"0","wheelchair_boarding":"\r","route_id":"3130","route_short_name":"A3-1"},{"stop_id":"20464","stop_code":"","stop_name":"Carrera 24 Con Calle 56","stop_lat":"10.920841","stop_lon":"-74.793446","stop_url":"","location_type":"0","parent_station":"0","wheelchair_boarding":"\r","route_id":"3130","route_short_name":"A3-1"},{"stop_id":"20651","stop_code":"","stop_name":"Carrera 24 Con Calle 57D","stop_lat":"10.921237","stop_lon":"-74.794565","stop_url":"","location_type":"0","parent_station":"0","wheelchair_boarding":"\r","route_id":"3130","route_short_name":"A3-1"},{"stop_id":"20650","stop_code":"","stop_name":"Carrera 24 Con Calle 59","stop_lat":"10.92152","stop_lon":"-74.796022","stop_url":"","location_type":"0","parent_station":"0","wheelchair_boarding":"\r","route_id":"3130","route_short_name":"A3-1"},{"stop_id":"17516","stop_code":"","stop_name":"Carrera 24 Con Calle 63","stop_lat":"10.921272","stop_lon":"-74.798632","stop_url":"","location_type":"0","parent_station":"0","wheelchair_boarding":"\r","route_id":"3130","route_short_name":"A3-1"},{"stop_id":"20540","stop_code":"","stop_name":"Calle 40 No 14 - 68","stop_lat":"10.910237","stop_lon":"-74.779402","stop_url":"","location_type":"0","parent_station":"0","wheelchair_boarding":"\r","route_id":"3320","route_short_name":"A3-2"},{"stop_id":"20020","stop_code":"","stop_name":"Calle 43 Con Carrera 13","stop_lat":"10.908305","stop_lon":"-74.780645","stop_url":"","location_type":"0","parent_station":"0","wheelchair_boarding":"\r","route_id":"3320","route_short_name":"A3-2"},{"stop_id":"20006","stop_code":"","stop_name":"Calle 54 Con Carrera 11B","stop_lat":"10.905077","stop_lon":"-74.791623","stop_url":"","location_type":"0","parent_station":"0","wheelchair_boarding":"\r","route_id":"3320","route_short_name":"A3-2"},{"stop_id":"20005","stop_code":"","stop_name":"Calle 54 Con Carrera 13B El Gran Percal","stop_lat":"10.906455","stop_lon":"-74.791893","stop_url":"","location_type":"0","parent_station":"0","wheelchair_boarding":"\r","route_id":"3320","route_short_name":"A3-2"},{"stop_id":"20700","stop_code":"","stop_name":"Calle 54 Con Carrera 14 Frente Gimnasio","stop_lat":"10.906856","stop_lon":"-74.791828","stop_url":"","location_type":"0","parent_station":"0","wheelchair_boarding":"\r","route_id":"3320","route_short_name":"A3-2"},{"stop_id":"20026","stop_code":"","stop_name":"Calle 54 No. 14 - 110","stop_lat":"10.910017","stop_lon":"-74.792017","stop_url":"","location_type":"0","parent_station":"0","wheelchair_boarding":"\r","route_id":"3320","route_short_name":"A3-2"},{"stop_id":"20200","stop_code":"","stop_name":"Carrera 11 Calle 44A Esq. Col. Club de Leones","stop_lat":"10.906417","stop_lon":"-74.781622","stop_url":"","location_type":"0","parent_station":"0","wheelchair_boarding":"\r","route_id":"3320","route_short_name":"A3-2"},{"stop_id":"20643","stop_code":"","stop_name":"Carrera 11 Con Calle 46","stop_lat":"10.906155","stop_lon":"-74.783343","stop_url":"","location_type":"0","parent_station":"0","wheelchair_boarding":"\r","route_id":"3320","route_short_name":"A3-2"},{"stop_id":"20008","stop_code":"","stop_name":"Carrera 11 Con Calle 49 Iglesia Testigos de Jehova","stop_lat":"10.905652","stop_lon":"-74.78593","stop_url":"","location_type":"0","parent_station":"0","wheelchair_boarding":"\r","route_id":"3320","route_short_name":"A3-2"},{"stop_id":"20007","stop_code":"","stop_name":"Carrera 11 Con Calle 52 Siete Bocas","stop_lat":"10.905058","stop_lon":"-74.789035","stop_url":"","location_type":"0","parent_station":"0","wheelchair_boarding":"\r","route_id":"3320","route_short_name":"A3-2"},{"stop_id":"20021","stop_code":"","stop_name":"Carrera 14 Con Calle 43B","stop_lat":"10.909352","stop_lon":"-74.781268","stop_url":"","location_type":"0","parent_station":"0","wheelchair_boarding":"\r","route_id":"3320","route_short_name":"A3-2"},{"stop_id":"11118","stop_code":"","stop_name":"Carrera 14 Con Calle 47","stop_lat":"10.908438","stop_lon":"-74.784507","stop_url":"","location_type":"0","parent_station":"0","wheelchair_boarding":"\r","route_id":"3320","route_short_name":"A3-2"},{"stop_id":"20645","stop_code":"","stop_name":"Carrera 14 Con Calle 50 Esq","stop_lat":"10.908898","stop_lon":"-74.787952","stop_url":"","location_type":"0","parent_station":"0","wheelchair_boarding":"\r","route_id":"3320","route_short_name":"A3-2"},{"stop_id":"20646","stop_code":"","stop_name":"Carrera 14 Con Calle 52 Esq","stop_lat":"10.908058","stop_lon":"-74.789332","stop_url":"","location_type":"0","parent_station":"0","wheelchair_boarding":"\r","route_id":"3320","route_short_name":"A3-2"},{"stop_id":"20003","stop_code":"","stop_name":"Carrera 14 Con Calle 59 Entrada Barrio Nuevo Milen","stop_lat":"10.908877","stop_lon":"-74.795947","stop_url":"","location_type":"0","parent_station":"0","wheelchair_boarding":"\r","route_id":"3320","route_short_name":"A3-2"},{"stop_id":"20002","stop_code":"","stop_name":"Carrera 14 Con Calle 63 Olimpica","stop_lat":"10.909228","stop_lon":"-74.798492","stop_url":"","location_type":"0","parent_station":"0","wheelchair_boarding":"\r","route_id":"3320","route_short_name":"A3-2"},{"stop_id":"20644","stop_code":"","stop_name":"Carrera 14 No. 47A - 100 Do\u00f1a Soledad","stop_lat":"10.908482","stop_lon":"-74.78601","stop_url":"","location_type":"0","parent_station":"0","wheelchair_boarding":"\r","route_id":"3320","route_short_name":"A3-2"},{"stop_id":"20027","stop_code":"","stop_name":"Carrera 15 Con Calle 54 Sisben Soledad","stop_lat":"10.910387","stop_lon":"-74.792935","stop_url":"","location_type":"0","parent_station":"0","wheelchair_boarding":"\r","route_id":"3320","route_short_name":"A3-2"},{"stop_id":"20028","stop_code":"","stop_name":"Carrera 15 Con Calle 59 Entrada Barrio Pta De Oro","stop_lat":"10.910698","stop_lon":"-74.79516","stop_url":"","location_type":"0","parent_station":"0","wheelchair_boarding":"\r","route_id":"3320","route_short_name":"A3-2"},{"stop_id":"20029","stop_code":"","stop_name":"Carrera 15 Con Calle 63 Villa Linda","stop_lat":"10.911055","stop_lon":"-74.797862","stop_url":"","location_type":"0","parent_station":"0","wheelchair_boarding":"\r","route_id":"3320","route_short_name":"A3-2"},{"stop_id":"20542","stop_code":"","stop_name":"Carrera 15B Con Cale 44D Esq","stop_lat":"10.912152","stop_lon":"-74.782268","stop_url":"","location_type":"0","parent_station":"0","wheelchair_boarding":"\r","route_id":"3320","route_short_name":"A3-2"},{"stop_id":"20541","stop_code":"","stop_name":"Carrera 15B Con Calle 43C Esq","stop_lat":"10.911695","stop_lon":"-74.780897","stop_url":"","location_type":"0","parent_station":"0","wheelchair_boarding":"\r","route_id":"3320","route_short_name":"A3-2"},{"stop_id":"20543","stop_code":"","stop_name":"Diagonal 43 Frente Nom. 14 - 122","stop_lat":"10.910502","stop_lon":"-74.781493","stop_url":"","location_type":"0","parent_station":"0","wheelchair_boarding":"\r","route_id":"3320","route_short_name":"A3-2"},{"stop_id":"20544","stop_code":"","stop_name":"Diagonal 43 no. 14 -29","stop_lat":"10.909697","stop_lon":"-74.780937","stop_url":"","location_type":"0","parent_station":"0","wheelchair_boarding":"\r","route_id":"3320","route_short_name":"A3-2"},{"stop_id":"20387","stop_code":"","stop_name":"Terminal de Transportes","stop_lat":"10.908912","stop_lon":"-74.793808","stop_url":"","location_type":"0","parent_station":"0","wheelchair_boarding":"\r","route_id":"3320","route_short_name":"A3-2"},{"stop_id":"20205","stop_code":"","stop_name":"Calle 37 Con Carrera 5B Esq.","stop_lat":"10.899127","stop_lon":"-74.781407","stop_url":"","location_type":"0","parent_station":"0","wheelchair_boarding":"\r","route_id":"3330","route_short_name":"A3-3"},{"stop_id":"20486","stop_code":"","stop_name":"Calle 37 Con Carrera 5B Norte","stop_lat":"10.899122","stop_lon":"-74.781707","stop_url":"","location_type":"0","parent_station":"0","wheelchair_boarding":"\r","route_id":"3330","route_short_name":"A3-3"},{"stop_id":"20551","stop_code":"","stop_name":"Calle 47 No. 5B - 16","stop_lat":"10.899358","stop_lon":"-74.782847","stop_url":"","location_type":"0","parent_station":"0","wheelchair_boarding":"\r","route_id":"3330","route_short_name":"A3-3"},{"stop_id":"20550","stop_code":"","stop_name":"Calle 47 No. 5B - 69","stop_lat":"10.899877","stop_lon":"-74.782968","stop_url":"","location_type":"0","parent_station":"0","wheelchair_boarding":"\r","route_id":"3330","route_short_name":"A3-3"},{"stop_id":"20552","stop_code":"","stop_name":"Calle 47 No. 6A - 22","stop_lat":"10.900828","stop_lon":"-74.783167","stop_url":"","location_type":"0","parent_station":"0","wheelchair_boarding":"\r","route_id":"3330","route_short_name":"A3-3"},{"stop_id":"20554","stop_code":"","stop_name":"Calle 48 No. 6E - 22","stop_lat":"10.9017","stop_lon":"-74.785527","stop_url":"","location_type":"0","parent_station":"0","wheelchair_boarding":"\r","route_id":"3330","route_short_name":"A3-3"},{"stop_id":"20558","stop_code":"","stop_name":"Calle 54 No. 11 - 18","stop_lat":"10.904798","stop_lon":"-74.791417","stop_url":"","location_type":"0","parent_station":"0","wheelchair_boarding":"\r","route_id":"3330","route_short_name":"A3-3"},{"stop_id":"20545","stop_code":"","stop_name":"Calle 54 No. 8A - 03","stop_lat":"10.901935","stop_lon":"-74.790852","stop_url":"","location_type":"0","parent_station":"0","wheelchair_boarding":"\r","route_id":"3330","route_short_name":"A3-3"},{"stop_id":"20557","stop_code":"","stop_name":"Calle 54 No. 8B - 16","stop_lat":"10.902397","stop_lon":"-74.79088","stop_url":"","location_type":"0","parent_station":"0","wheelchair_boarding":"\r","route_id":"3330","route_short_name":"A3-3"},{"stop_id":"20553","stop_code":"","stop_name":"Carrera 5 No. 47C - 08","stop_lat":"10.90098","stop_lon":"-74.784192","stop_url":"","location_type":"0","parent_station":"0","wheelchair_boarding":"\r","route_id":"3330","route_short_name":"A3-3"},{"stop_id":"20549","stop_code":"","stop_name":"Carrera 6C No. 47 - 51","stop_lat":"10.90106","stop_lon":"-74.783673","stop_url":"","location_type":"0","parent_station":"0","wheelchair_boarding":"\r","route_id":"3330","route_short_name":"A3-3"},{"stop_id":"20555","stop_code":"","stop_name":"Carrera 7A No. 50 B 11","stop_lat":"10.901863","stop_lon":"-74.787075","stop_url":"","location_type":"0","parent_station":"0","wheelchair_boarding":"\r","route_id":"3330","route_short_name":"A3-3"},{"stop_id":"20547","stop_code":"","stop_name":"Carrera 7A No. 50C - 21","stop_lat":"10.901785","stop_lon":"-74.787425","stop_url":"","location_type":"0","parent_station":"0","wheelchair_boarding":"\r","route_id":"3330","route_short_name":"A3-3"},{"stop_id":"20546","stop_code":"","stop_name":"Carrera 8 No. 52A - 15","stop_lat":"10.901947","stop_lon":"-74.789347","stop_url":"","location_type":"0","parent_station":"0","wheelchair_boarding":"\r","route_id":"3330","route_short_name":"A3-3"},{"stop_id":"20556","stop_code":"","stop_name":"Carrera 8 No. 53 A Esq. Hospital Materno Infantil","stop_lat":"10.90196","stop_lon":"-74.789625","stop_url":"","location_type":"0","parent_station":"0","wheelchair_boarding":"\r","route_id":"3330","route_short_name":"A3-3"},{"stop_id":"20537","stop_code":"","stop_name":"Calle 54B Con Carrera 2F","stop_lat":"10.891917","stop_lon":"-74.7896","stop_url":"","location_type":"0","parent_station":"0","wheelchair_boarding":"\r","route_id":"3334","route_short_name":"A3-4"},{"stop_id":"20536","stop_code":"","stop_name":"Calle 54B Trv 2D10 - 19","stop_lat":"10.891348","stop_lon":"-74.789497","stop_url":"","location_type":"0","parent_station":"0","wheelchair_boarding":"\r","route_id":"3334","route_short_name":"A3-4"},{"stop_id":"20533","stop_code":"","stop_name":"Calle 57 Con Carrera 3 Las Cuatro Villas","stop_lat":"10.89342","stop_lon":"-74.793272","stop_url":"","location_type":"0","parent_station":"0","wheelchair_boarding":"\r","route_id":"3334","route_short_name":"A3-4"},{"stop_id":"20104","stop_code":"","stop_name":"Calle 63 Con Carrera 5 Ent. 1 La Central","stop_lat":"10.891485","stop_lon":"-74.80419","stop_url":"","location_type":"0","parent_station":"0","wheelchair_boarding":"\r","route_id":"3334","route_short_name":"A3-4"},{"stop_id":"20100","stop_code":"","stop_name":"Calle 65 Con Carrera 12 Ciudad Transmetro","stop_lat":"10.904125","stop_lon":"-74.802113","stop_url":"","location_type":"0","parent_station":"0","wheelchair_boarding":"\r","route_id":"3334","route_short_name":"A3-4"},{"stop_id":"20101","stop_code":"","stop_name":"Calle 65 Con Carrera 8 Esq. Los Loteros","stop_lat":"10.901335","stop_lon":"-74.802702","stop_url":"","location_type":"0","parent_station":"0","wheelchair_boarding":"\r","route_id":"3334","route_short_name":"A3-4"},{"stop_id":"20118","stop_code":"","stop_name":"Calle 65 Con Carrera 8 Esq. Los Loteros 2","stop_lat":"10.900938","stop_lon":"-74.802592","stop_url":"","location_type":"0","parent_station":"0","wheelchair_boarding":"\r","route_id":"3334","route_short_name":"A3-4"},{"stop_id":"20535","stop_code":"","stop_name":"Carrera 3 No. 54C - 03 ","stop_lat":"10.892803","stop_lon":"-74.790272","stop_url":"","location_type":"0","parent_station":"0","wheelchair_boarding":"\r","route_id":"3334","route_short_name":"A3-4"},{"stop_id":"20538","stop_code":"","stop_name":"Carrera 3 No. 55 - 16","stop_lat":"10.892782","stop_lon":"-74.79065","stop_url":"","location_type":"0","parent_station":"0","wheelchair_boarding":"\r","route_id":"3334","route_short_name":"A3-4"},{"stop_id":"20539","stop_code":"","stop_name":"Carrera 3 No. 56 - 142","stop_lat":"10.892948","stop_lon":"-74.792595","stop_url":"","location_type":"0","parent_station":"0","wheelchair_boarding":"\r","route_id":"3334","route_short_name":"A3-4"},{"stop_id":"20534","stop_code":"","stop_name":"Carrera 3 No. 56C - 21 ","stop_lat":"10.892867","stop_lon":"-74.792117","stop_url":"","location_type":"0","parent_station":"0","wheelchair_boarding":"\r","route_id":"3334","route_short_name":"A3-4"},{"stop_id":"20103","stop_code":"","stop_name":"Entrada Barrio Candelaria","stop_lat":"10.895393","stop_lon":"-74.803785","stop_url":"","location_type":"0","parent_station":"0","wheelchair_boarding":"\r","route_id":"3334","route_short_name":"A3-4"},{"stop_id":"20119","stop_code":"","stop_name":"Entrada Barrio Manantial","stop_lat":"10.904042","stop_lon":"-74.801957","stop_url":"","location_type":"0","parent_station":"0","wheelchair_boarding":"\r","route_id":"3334","route_short_name":"A3-4"},{"stop_id":"20117","stop_code":"","stop_name":"Entrada Barrio Villa Carmen","stop_lat":"10.8988","stop_lon":"-74.803067","stop_url":"","location_type":"0","parent_station":"0","wheelchair_boarding":"\r","route_id":"3334","route_short_name":"A3-4"},{"stop_id":"20102","stop_code":"","stop_name":"Entrada Ciudad Camelot","stop_lat":"10.899415","stop_lon":"-74.803115","stop_url":"","location_type":"0","parent_station":"0","wheelchair_boarding":"\r","route_id":"3334","route_short_name":"A3-4"},{"stop_id":"20522","stop_code":"","stop_name":"Entrada Granabastos","stop_lat":"10.887832","stop_lon":"-74.803852","stop_url":"","location_type":"0","parent_station":"0","wheelchair_boarding":"\r","route_id":"3334","route_short_name":"A3-4"},{"stop_id":"20115","stop_code":"","stop_name":"Entrada Las Cometas","stop_lat":"10.891925","stop_lon":"-74.804013","stop_url":"","location_type":"0","parent_station":"0","wheelchair_boarding":"\r","route_id":"3334","route_short_name":"A3-4"},{"stop_id":"20476","stop_code":"","stop_name":"Entrada Nuevo Colegio Granabastos","stop_lat":"10.892458","stop_lon":"-74.797293","stop_url":"","location_type":"0","parent_station":"0","wheelchair_boarding":"\r","route_id":"3334","route_short_name":"A3-4"},{"stop_id":"20114","stop_code":"","stop_name":"Entrada Villa Sol","stop_lat":"10.889405","stop_lon":"-74.803507","stop_url":"","location_type":"0","parent_station":"0","wheelchair_boarding":"\r","route_id":"3334","route_short_name":"A3-4"},{"stop_id":"20494","stop_code":"","stop_name":"Las Comentas Norte","stop_lat":"10.890955","stop_lon":"-74.799928","stop_url":"","location_type":"0","parent_station":"0","wheelchair_boarding":"\r","route_id":"3334","route_short_name":"A3-4"},{"stop_id":"20475","stop_code":"","stop_name":"Las Cometas Sur","stop_lat":"10.890973","stop_lon":"-74.799828","stop_url":"","location_type":"0","parent_station":"0","wheelchair_boarding":"\r","route_id":"3334","route_short_name":"A3-4"},{"stop_id":"20493","stop_code":"","stop_name":"Nuevo Colegio Granabastos Norte","stop_lat":"10.89253","stop_lon":"-74.797202","stop_url":"","location_type":"0","parent_station":"0","wheelchair_boarding":"\r","route_id":"3334","route_short_name":"A3-4"},{"stop_id":"20490","stop_code":"","stop_name":"Villa Carla Norte","stop_lat":"10.895937","stop_lon":"-74.791992","stop_url":"","location_type":"0","parent_station":"0","wheelchair_boarding":"\r","route_id":"3334","route_short_name":"A3-4"},{"stop_id":"20479","stop_code":"","stop_name":"Villa Carla Sur","stop_lat":"10.895408","stop_lon":"-74.792565","stop_url":"","location_type":"0","parent_station":"0","wheelchair_boarding":"\r","route_id":"3334","route_short_name":"A3-4"},{"stop_id":"20492","stop_code":"","stop_name":"Villa Maria 1ra Etapa Norte","stop_lat":"10.893168","stop_lon":"-74.79599","stop_url":"","location_type":"0","parent_station":"0","wheelchair_boarding":"\r","route_id":"3334","route_short_name":"A3-4"},{"stop_id":"20477","stop_code":"","stop_name":"Villa Maria 1ra Etapa Sur","stop_lat":"10.89324","stop_lon":"-74.795803","stop_url":"","location_type":"0","parent_station":"0","wheelchair_boarding":"\r","route_id":"3334","route_short_name":"A3-4"},{"stop_id":"20491","stop_code":"","stop_name":"Villa Maria 2da Etapa Norte","stop_lat":"10.894315","stop_lon":"-74.794233","stop_url":"","location_type":"0","parent_station":"0","wheelchair_boarding":"\r","route_id":"3334","route_short_name":"A3-4"},{"stop_id":"20478","stop_code":"","stop_name":"Villa Maria 2da Etapa Sur","stop_lat":"10.894047","stop_lon":"-74.794525","stop_url":"","location_type":"0","parent_station":"0","wheelchair_boarding":"\r","route_id":"3334","route_short_name":"A3-4"},{"stop_id":"20695","stop_code":"","stop_name":"Calle 52 con Carrera 10C1 Esq.   ","stop_lat":"10.904732","stop_lon":"-74.78935","stop_url":"","location_type":"0","parent_station":"0","wheelchair_boarding":"\r","route_id":"3335","route_short_name":"A3-5"},{"stop_id":"20179","stop_code":"","stop_name":"Av. Circunvalar 67B Puente Peat. Velodromo","stop_lat":"10.923185","stop_lon":"-74.801615","stop_url":"","location_type":"0","parent_station":"0","wheelchair_boarding":"\r","route_id":"3351","route_short_name":"A5-1"},{"stop_id":"20178","stop_code":"","stop_name":"Carrera 15 Sur Con Calle 46H","stop_lat":"10.922855","stop_lon":"-74.804867","stop_url":"","location_type":"0","parent_station":"0","wheelchair_boarding":"\r","route_id":"3351","route_short_name":"A5-1"},{"stop_id":"20177","stop_code":"","stop_name":"Carrera 15 Sur No. 47C - 39","stop_lat":"10.922763","stop_lon":"-74.806577","stop_url":"","location_type":"0","parent_station":"0","wheelchair_boarding":"\r","route_id":"3351","route_short_name":"A5-1"},{"stop_id":"20417","stop_code":"","stop_name":"Calle 69 Con Carrera 4","stop_lat":"10.889648","stop_lon":"-74.808703","stop_url":"","location_type":"0","parent_station":"0","wheelchair_boarding":"\r","route_id":"3353","route_short_name":"A5-3"},{"stop_id":"20420","stop_code":"","stop_name":"Carrera 4 Con Calle 69A","stop_lat":"10.889343","stop_lon":"-74.808878","stop_url":"","location_type":"0","parent_station":"0","wheelchair_boarding":"\r","route_id":"3353","route_short_name":"A5-3"},{"stop_id":"20639","stop_code":"","stop_name":"Carrera 4 Con Calle 71","stop_lat":"10.889353","stop_lon":"-74.810478","stop_url":"","location_type":"0","parent_station":"0","wheelchair_boarding":"\r","route_id":"3353","route_short_name":"A5-3"},{"stop_id":"20418","stop_code":"","stop_name":"Carrera 4 Con Calle 71A","stop_lat":"10.88937","stop_lon":"-74.810643","stop_url":"","location_type":"0","parent_station":"0","wheelchair_boarding":"\r","route_id":"3353","route_short_name":"A5-3"},{"stop_id":"20422","stop_code":"","stop_name":"Carrera 5 Con Calle 66A","stop_lat":"10.891378","stop_lon":"-74.806367","stop_url":"","location_type":"0","parent_station":"0","wheelchair_boarding":"\r","route_id":"3353","route_short_name":"A5-3"},{"stop_id":"20421","stop_code":"","stop_name":"Carrera 5 Con Calle 69 Esq","stop_lat":"10.891352","stop_lon":"-74.808445","stop_url":"","location_type":"0","parent_station":"0","wheelchair_boarding":"\r","route_id":"3353","route_short_name":"A5-3"},{"stop_id":"20415","stop_code":"","stop_name":"Carrera 5 No. 66 - 78","stop_lat":"10.891428","stop_lon":"-74.806073","stop_url":"","location_type":"0","parent_station":"0","wheelchair_boarding":"\r","route_id":"3353","route_short_name":"A5-3"},{"stop_id":"20416","stop_code":"","stop_name":"Carrera 5 No. 68 B Esq","stop_lat":"10.891388","stop_lon":"-74.808235","stop_url":"","location_type":"0","parent_station":"0","wheelchair_boarding":"\r","route_id":"3353","route_short_name":"A5-3"},{"stop_id":"20673","stop_code":"","stop_name":"Diagonal 71 Sur Con Transversal 1 B Sur Orient","stop_lat":"10.88687","stop_lon":"-74.812773","stop_url":"","location_type":"0","parent_station":"0","wheelchair_boarding":"\r","route_id":"3353","route_short_name":"A5-3"},{"stop_id":"20670","stop_code":"","stop_name":"Diagonal 71 Sur Con Transversal 1A4 Occid","stop_lat":"10.888093","stop_lon":"-74.812008","stop_url":"","location_type":"0","parent_station":"0","wheelchair_boarding":"\r","route_id":"3353","route_short_name":"A5-3"},{"stop_id":"20674","stop_code":"","stop_name":"Diagonal 71 Sur Con Transversal 1A4 Oriental","stop_lat":"10.888243","stop_lon":"-74.81185","stop_url":"","location_type":"0","parent_station":"0","wheelchair_boarding":"\r","route_id":"3353","route_short_name":"A5-3"},{"stop_id":"20671","stop_code":"","stop_name":"Diagonal 71 Sur Con Transversal 1B Sur Occid","stop_lat":"10.886892","stop_lon":"-74.81279","stop_url":"","location_type":"0","parent_station":"0","wheelchair_boarding":"\r","route_id":"3353","route_short_name":"A5-3"},{"stop_id":"20672","stop_code":"","stop_name":"Transversal 2 Sur Con Diagonal 72 Esq","stop_lat":"10.886447","stop_lon":"-74.814633","stop_url":"","location_type":"0","parent_station":"0","wheelchair_boarding":"\r","route_id":"3353","route_short_name":"A5-3"},{"stop_id":"11352","stop_code":"","stop_name":"Av.Circunvalar Con Calle 51B","stop_lat":"10.922777","stop_lon":"-74.814132","stop_url":"","location_type":"0","parent_station":"0","wheelchair_boarding":"\r","route_id":"3606","route_short_name":"A6-6"},{"stop_id":"16614","stop_code":"","stop_name":"Calle 46 Con Carrera 1 Sur Esq","stop_lat":"10.930078","stop_lon":"-74.802598","stop_url":"","location_type":"0","parent_station":"0","wheelchair_boarding":"\r","route_id":"3606","route_short_name":"A6-6"},{"stop_id":"20454","stop_code":"","stop_name":"Calle 47 Con Carrera 2G","stop_lat":"10.93446","stop_lon":"-74.80134","stop_url":"","location_type":"0","parent_station":"0","wheelchair_boarding":"\r","route_id":"3606","route_short_name":"A6-6"},{"stop_id":"2140","stop_code":"","stop_name":"Calle 47 Con Carrera 6D Sur","stop_lat":"10.928177","stop_lon":"-74.805123","stop_url":"","location_type":"0","parent_station":"0","wheelchair_boarding":"\r","route_id":"3606","route_short_name":"A6-6"},{"stop_id":"16611","stop_code":"","stop_name":"Calle 47 No. 3A Sur - 18","stop_lat":"10.929378","stop_lon":"-74.805965","stop_url":"","location_type":"0","parent_station":"0","wheelchair_boarding":"\r","route_id":"3606","route_short_name":"A6-6"},{"stop_id":"11351","stop_code":"","stop_name":"Calle 49 Con Carrera 12 Sur","stop_lat":"10.923305","stop_lon":"-74.812088","stop_url":"","location_type":"0","parent_station":"0","wheelchair_boarding":"\r","route_id":"3606","route_short_name":"A6-6"},{"stop_id":"16608","stop_code":"","stop_name":"Calle 49 Con Carrera 3 Sur","stop_lat":"10.929263","stop_lon":"-74.810445","stop_url":"","location_type":"0","parent_station":"0","wheelchair_boarding":"\r","route_id":"3606","route_short_name":"A6-6"},{"stop_id":"16607","stop_code":"","stop_name":"Calle 49 Con Carrera 5B Sur","stop_lat":"10.927535","stop_lon":"-74.810925","stop_url":"","location_type":"0","parent_station":"0","wheelchair_boarding":"\r","route_id":"3606","route_short_name":"A6-6"},{"stop_id":"11350","stop_code":"","stop_name":"Calle 49 Con Carrera 8B Sur Cayenas","stop_lat":"10.924822","stop_lon":"-74.811538","stop_url":"","location_type":"0","parent_station":"0","wheelchair_boarding":"\r","route_id":"3606","route_short_name":"A6-6"},{"stop_id":"11353","stop_code":"","stop_name":"Calle 51B Con Carrera 10 Sur","stop_lat":"10.925147","stop_lon":"-74.81477","stop_url":"","location_type":"0","parent_station":"0","wheelchair_boarding":"\r","route_id":"3606","route_short_name":"A6-6"},{"stop_id":"16609","stop_code":"","stop_name":"Carrera 1 Con Calle 48C ","stop_lat":"10.93091","stop_lon":"-74.809012","stop_url":"","location_type":"0","parent_station":"0","wheelchair_boarding":"\r","route_id":"3606","route_short_name":"A6-6"},{"stop_id":"16610","stop_code":"","stop_name":"Carrera 1 No. 47B - 03 ","stop_lat":"10.930875","stop_lon":"-74.807262","stop_url":"","location_type":"0","parent_station":"0","wheelchair_boarding":"\r","route_id":"3606","route_short_name":"A6-6"},{"stop_id":"11354","stop_code":"","stop_name":"Carrera 10 Sur Con Calle 50A","stop_lat":"10.924185","stop_lon":"-74.812707","stop_url":"","location_type":"0","parent_station":"0","wheelchair_boarding":"\r","route_id":"3606","route_short_name":"A6-6"},{"stop_id":"20453","stop_code":"","stop_name":"Carrera 2D Con Calle 47","stop_lat":"10.93293","stop_lon":"-74.803165","stop_url":"","location_type":"0","parent_station":"0","wheelchair_boarding":"\r","route_id":"3606","route_short_name":"A6-6"},{"stop_id":"16603","stop_code":"","stop_name":"Carrera 6 Sur Con Calle 46F Esq","stop_lat":"10.93014","stop_lon":"-74.803898","stop_url":"","location_type":"0","parent_station":"0","wheelchair_boarding":"\r","route_id":"3606","route_short_name":"A6-6"},{"stop_id":"16604","stop_code":"","stop_name":"Carrera 6 Sur Con Calle 47 Esq","stop_lat":"10.929058","stop_lon":"-74.805548","stop_url":"","location_type":"0","parent_station":"0","wheelchair_boarding":"\r","route_id":"3606","route_short_name":"A6-6"},{"stop_id":"16606","stop_code":"","stop_name":"Carrera 6 Sur con Calle 48F","stop_lat":"10.926347","stop_lon":"-74.810113","stop_url":"","location_type":"0","parent_station":"0","wheelchair_boarding":"\r","route_id":"3606","route_short_name":"A6-6"},{"stop_id":"16605","stop_code":"","stop_name":"Carrera 6 Sur Con Cll47B","stop_lat":"10.927633","stop_lon":"-74.807463","stop_url":"","location_type":"0","parent_station":"0","wheelchair_boarding":"\r","route_id":"3606","route_short_name":"A6-6"},{"stop_id":"16613","stop_code":"","stop_name":"Carrera 7 Sur No. 46 - 29","stop_lat":"10.927993","stop_lon":"-74.803052","stop_url":"","location_type":"0","parent_station":"0","wheelchair_boarding":"\r","route_id":"3606","route_short_name":"A6-6"},{"stop_id":"11355","stop_code":"","stop_name":"PASO Cayenas frente Nom. 8B Sur - 24 ","stop_lat":"10.924512","stop_lon":"-74.811633","stop_url":"","location_type":"0","parent_station":"0","wheelchair_boarding":"\r","route_id":"3606","route_short_name":"A6-6"},{"stop_id":"17124","stop_code":"","stop_name":"Calle 93 Con Carrera 42C","stop_lat":"10.997755","stop_lon":"-74.830443","stop_url":"","location_type":"0","parent_station":"0","wheelchair_boarding":"\r","route_id":"7710","route_short_name":"A7-1"},{"stop_id":"17123","stop_code":"","stop_name":"Calle 93 Con Carrera 42F","stop_lat":"11.000185","stop_lon":"-74.829543","stop_url":"","location_type":"0","parent_station":"0","wheelchair_boarding":"\r","route_id":"7710","route_short_name":"A7-1"},{"stop_id":"17125","stop_code":"","stop_name":"Calle 96 Con Calle 96A","stop_lat":"10.999927","stop_lon":"-74.83129","stop_url":"","location_type":"0","parent_station":"0","wheelchair_boarding":"\r","route_id":"7710","route_short_name":"A7-1"},{"stop_id":"17126","stop_code":"","stop_name":"Calle 97 Con Carrera 42G1","stop_lat":"11.001248","stop_lon":"-74.832198","stop_url":"","location_type":"0","parent_station":"0","wheelchair_boarding":"\r","route_id":"7710","route_short_name":"A7-1"},{"stop_id":"17127","stop_code":"","stop_name":"Calle 98 Con Carrera 42G2","stop_lat":"11.002163","stop_lon":"-74.833437","stop_url":"","location_type":"0","parent_station":"0","wheelchair_boarding":"\r","route_id":"7710","route_short_name":"A7-1"},{"stop_id":"20641","stop_code":"","stop_name":"Calle 99C No. 43 - 150 Tarragona","stop_lat":"11.003703","stop_lon":"-74.836297","stop_url":"","location_type":"0","parent_station":"0","wheelchair_boarding":"\r","route_id":"7710","route_short_name":"A7-1"},{"stop_id":"17128","stop_code":"","stop_name":"Carrera 42G1 Con Calle 100","stop_lat":"11.005243","stop_lon":"-74.835023","stop_url":"","location_type":"0","parent_station":"0","wheelchair_boarding":"\r","route_id":"7710","route_short_name":"A7-1"},{"stop_id":"20511","stop_code":"","stop_name":"Carrera 43 Con Calle 76 Seminario","stop_lat":"10.994982","stop_lon":"-74.812923","stop_url":"","location_type":"0","parent_station":"0","wheelchair_boarding":"\r","route_id":"7710","route_short_name":"A7-1"},{"stop_id":"20400","stop_code":"","stop_name":"Carrera 43 No. 79 - 212 Ferreteria Sander","stop_lat":"10.996353","stop_lon":"-74.815472","stop_url":"","location_type":"0","parent_station":"0","wheelchair_boarding":"\r","route_id":"7710","route_short_name":"A7-1"},{"stop_id":"20513","stop_code":"","stop_name":"Carrera 43 No. 80 - 182 Home Club","stop_lat":"10.997342","stop_lon":"-74.817303","stop_url":"","location_type":"0","parent_station":"0","wheelchair_boarding":"\r","route_id":"7710","route_short_name":"A7-1"},{"stop_id":"20518","stop_code":"","stop_name":"Carrera 43 No. 82 - 178 Ferreteria Don Kike","stop_lat":"10.998343","stop_lon":"-74.819477","stop_url":"","location_type":"0","parent_station":"0","wheelchair_boarding":"\r","route_id":"7710","route_short_name":"A7-1"},{"stop_id":"20402","stop_code":"","stop_name":"Carrera 43 No. 84 - 154 Narcobollo","stop_lat":"10.998865","stop_lon":"-74.821442","stop_url":"","location_type":"0","parent_station":"0","wheelchair_boarding":"\r","route_id":"7710","route_short_name":"A7-1"},{"stop_id":"20515","stop_code":"","stop_name":"Carrera 43 No. 87 - 40","stop_lat":"11.000108","stop_lon":"-74.824375","stop_url":"","location_type":"0","parent_station":"0","wheelchair_boarding":"\r","route_id":"7710","route_short_name":"A7-1"},{"stop_id":"20516","stop_code":"","stop_name":"Carrera 43 No. 90 - 128","stop_lat":"11.001153","stop_lon":"-74.826645","stop_url":"","location_type":"0","parent_station":"0","wheelchair_boarding":"\r","route_id":"7710","route_short_name":"A7-1"},{"stop_id":"17109","stop_code":"","stop_name":"Carrera 43 No. 98-86","stop_lat":"11.003392","stop_lon":"-74.833915","stop_url":"","location_type":"0","parent_station":"0","wheelchair_boarding":"\r","route_id":"7710","route_short_name":"A7-1"},{"stop_id":"17119","stop_code":"","stop_name":"Carrera 46 No. 80-211","stop_lat":"11.00018","stop_lon":"-74.816023","stop_url":"","location_type":"0","parent_station":"0","wheelchair_boarding":"\r","route_id":"7710","route_short_name":"A7-1"},{"stop_id":"20640","stop_code":"","stop_name":"Conjunto Residencial Parque 100","stop_lat":"11.000593","stop_lon":"-74.837017","stop_url":"","location_type":"0","parent_station":"0","wheelchair_boarding":"\r","route_id":"7710","route_short_name":"A7-1"},{"stop_id":"20222","stop_code":"","stop_name":"Calle 48 No. 23 - 29","stop_lat":"10.967455","stop_lon":"-74.794725","stop_url":"","location_type":"0","parent_station":"0","wheelchair_boarding":"\r","route_id":"7410","route_short_name":"A7-4"},{"stop_id":"20265","stop_code":"","stop_name":"Calle 61 No. 25 - 113","stop_lat":"10.973987","stop_lon":"-74.803347","stop_url":"","location_type":"0","parent_station":"0","wheelchair_boarding":"\r","route_id":"7410","route_short_name":"A7-4"},{"stop_id":"20230","stop_code":"","stop_name":"Calle 70C Con Carrera 22D Esq","stop_lat":"10.97084","stop_lon":"-74.810918","stop_url":"","location_type":"0","parent_station":"0","wheelchair_boarding":"\r","route_id":"7410","route_short_name":"A7-4"},{"stop_id":"20231","stop_code":"","stop_name":"Calle 70C Con Carrera 24C Esq","stop_lat":"10.97373","stop_lon":"-74.81023","stop_url":"","location_type":"0","parent_station":"0","wheelchair_boarding":"\r","route_id":"7410","route_short_name":"A7-4"},{"stop_id":"20232","stop_code":"","stop_name":"Calle 70C No. 26B - 44","stop_lat":"10.976285","stop_lon":"-74.80979","stop_url":"","location_type":"0","parent_station":"0","wheelchair_boarding":"\r","route_id":"7410","route_short_name":"A7-4"},{"stop_id":"20260","stop_code":"","stop_name":"Calle 74B No. 26C Frente Nom. 26C7 - 47","stop_lat":"10.978732","stop_lon":"-74.814478","stop_url":"","location_type":"0","parent_station":"0","wheelchair_boarding":"\r","route_id":"7410","route_short_name":"A7-4"},{"stop_id":"20241","stop_code":"","stop_name":"Calle 74B No. 26C7 - 29","stop_lat":"10.978673","stop_lon":"-74.814658","stop_url":"","location_type":"0","parent_station":"0","wheelchair_boarding":"\r","route_id":"7410","route_short_name":"A7-4"},{"stop_id":"20246","stop_code":"","stop_name":"Calle 76 Con Carrera 38A Esq","stop_lat":"10.98725","stop_lon":"-74.815938","stop_url":"","location_type":"0","parent_station":"0","wheelchair_boarding":"\r","route_id":"7410","route_short_name":"A7-4"},{"stop_id":"20247","stop_code":"","stop_name":"Calle 76 Con Carrera 39 Acolsure","stop_lat":"10.990147","stop_lon":"-74.814012","stop_url":"","location_type":"0","parent_station":"0","wheelchair_boarding":"\r","route_id":"7410","route_short_name":"A7-4"},{"stop_id":"20254","stop_code":"","stop_name":"Calle 76 No. 38A - 53 Diag. Col. Betania Norte","stop_lat":"10.987803","stop_lon":"-74.815632","stop_url":"","location_type":"0","parent_station":"0","wheelchair_boarding":"\r","route_id":"7410","route_short_name":"A7-4"},{"stop_id":"20253","stop_code":"","stop_name":"Calle 76 No. 38D - 63 Acolsure","stop_lat":"10.989677","stop_lon":"-74.814318","stop_url":"","location_type":"0","parent_station":"0","wheelchair_boarding":"\r","route_id":"7410","route_short_name":"A7-4"},{"stop_id":"20248","stop_code":"","stop_name":"Calle 76 No. 42 - 78 Uni. Metropolitana","stop_lat":"10.993075","stop_lon":"-74.813575","stop_url":"","location_type":"0","parent_station":"0","wheelchair_boarding":"\r","route_id":"7410","route_short_name":"A7-4"},{"stop_id":"20252","stop_code":"","stop_name":"Calle 76 No. 42B Esq Uni. Metropolitana","stop_lat":"10.993117","stop_lon":"-74.813703","stop_url":"","location_type":"0","parent_station":"0","wheelchair_boarding":"\r","route_id":"7410","route_short_name":"A7-4"},{"stop_id":"20251","stop_code":"","stop_name":"Calle 76 No. 43B - 05","stop_lat":"10.994847","stop_lon":"-74.811178","stop_url":"","location_type":"0","parent_station":"0","wheelchair_boarding":"\r","route_id":"7410","route_short_name":"A7-4"},{"stop_id":"20250","stop_code":"","stop_name":"Calle 79 Con Carrera 45 Esq","stop_lat":"10.997167","stop_lon":"-74.81255","stop_url":"","location_type":"0","parent_station":"0","wheelchair_boarding":"\r","route_id":"7410","route_short_name":"A7-4"},{"stop_id":"20249","stop_code":"","stop_name":"Calle 79 No. 42F - 94","stop_lat":"10.994873","stop_lon":"-74.813843","stop_url":"","location_type":"0","parent_station":"0","wheelchair_boarding":"\r","route_id":"7410","route_short_name":"A7-4"},{"stop_id":"20243","stop_code":"","stop_name":"Calle 79A Con Carrera 28 Esq","stop_lat":"10.981678","stop_lon":"-74.818478","stop_url":"","location_type":"0","parent_station":"0","wheelchair_boarding":"\r","route_id":"7410","route_short_name":"A7-4"},{"stop_id":"20257","stop_code":"","stop_name":"Calle 79A Con Cra 33 Fren. Nom. 33 - 30","stop_lat":"10.983492","stop_lon":"-74.817963","stop_url":"","location_type":"0","parent_station":"0","wheelchair_boarding":"\r","route_id":"7410","route_short_name":"A7-4"},{"stop_id":"20258","stop_code":"","stop_name":"Calle 79A No. 27 Esq","stop_lat":"10.981268","stop_lon":"-74.818585","stop_url":"","location_type":"0","parent_station":"0","wheelchair_boarding":"\r","route_id":"7410","route_short_name":"A7-4"},{"stop_id":"20244","stop_code":"","stop_name":"Calle 79A No. 34 - 22","stop_lat":"10.983975","stop_lon":"-74.817752","stop_url":"","location_type":"0","parent_station":"0","wheelchair_boarding":"\r","route_id":"7410","route_short_name":"A7-4"},{"stop_id":"20256","stop_code":"","stop_name":"Calle 79A No. 35C - 43","stop_lat":"10.985725","stop_lon":"-74.818157","stop_url":"","location_type":"0","parent_station":"0","wheelchair_boarding":"\r","route_id":"7410","route_short_name":"A7-4"},{"stop_id":"20245","stop_code":"","stop_name":"Calle 79A No. 35D - 50","stop_lat":"10.986227","stop_lon":"-74.818177","stop_url":"","location_type":"0","parent_station":"0","wheelchair_boarding":"\r","route_id":"7410","route_short_name":"A7-4"},{"stop_id":"20259","stop_code":"","stop_name":"Carrea 26C7 No. 75 - 77","stop_lat":"10.979563","stop_lon":"-74.816695","stop_url":"","location_type":"0","parent_station":"0","wheelchair_boarding":"\r","route_id":"7410","route_short_name":"A7-4"},{"stop_id":"20225","stop_code":"","stop_name":"Carrera 21B Con Calle 53D Esq","stop_lat":"10.96836","stop_lon":"-74.800675","stop_url":"","location_type":"0","parent_station":"0","wheelchair_boarding":"\r","route_id":"7410","route_short_name":"A7-4"},{"stop_id":"20228","stop_code":"","stop_name":"Carrera 21B Con Calle 65B Esq","stop_lat":"10.968805","stop_lon":"-74.808722","stop_url":"","location_type":"0","parent_station":"0","wheelchair_boarding":"\r","route_id":"7410","route_short_name":"A7-4"},{"stop_id":"20226","stop_code":"","stop_name":"Carrera 21B No. 60 - 28","stop_lat":"10.968588","stop_lon":"-74.803558","stop_url":"","location_type":"0","parent_station":"0","wheelchair_boarding":"\r","route_id":"7410","route_short_name":"A7-4"},{"stop_id":"20227","stop_code":"","stop_name":"Carrera 21B No. 64 - 26","stop_lat":"10.968683","stop_lon":"-74.806353","stop_url":"","location_type":"0","parent_station":"0","wheelchair_boarding":"\r","route_id":"7410","route_short_name":"A7-4"},{"stop_id":"20229","stop_code":"","stop_name":"Carrera 21B No. 68C - 14","stop_lat":"10.968897","stop_lon":"-74.811058","stop_url":"","location_type":"0","parent_station":"0","wheelchair_boarding":"\r","route_id":"7410","route_short_name":"A7-4"},{"stop_id":"20224","stop_code":"","stop_name":"Carrera 23 Con Calle 53D Esq","stop_lat":"10.969852","stop_lon":"-74.79902","stop_url":"","location_type":"0","parent_station":"0","wheelchair_boarding":"\r","route_id":"7410","route_short_name":"A7-4"},{"stop_id":"20223","stop_code":"","stop_name":"Carrera 23 No. 52 - 32","stop_lat":"10.968305","stop_lon":"-74.796838","stop_url":"","location_type":"0","parent_station":"0","wheelchair_boarding":"\r","route_id":"7410","route_short_name":"A7-4"},{"stop_id":"20269","stop_code":"","stop_name":"Carrera 24 Con Calle 53 Esq","stop_lat":"10.969612","stop_lon":"-74.797022","stop_url":"","location_type":"0","parent_station":"0","wheelchair_boarding":"\r","route_id":"7410","route_short_name":"A7-4"},{"stop_id":"20270","stop_code":"","stop_name":"Carrera 24 No. 48-03","stop_lat":"10.968147","stop_lon":"-74.794592","stop_url":"","location_type":"0","parent_station":"0","wheelchair_boarding":"\r","route_id":"7410","route_short_name":"A7-4"},{"stop_id":"20268","stop_code":"","stop_name":"Carrera 24 No. 53D-29","stop_lat":"10.971158","stop_lon":"-74.798937","stop_url":"","location_type":"0","parent_station":"0","wheelchair_boarding":"\r","route_id":"7410","route_short_name":"A7-4"},{"stop_id":"20267","stop_code":"","stop_name":"Carrera 24 No. 54 Esq Seguro de los Andes","stop_lat":"10.971312","stop_lon":"-74.800838","stop_url":"","location_type":"0","parent_station":"0","wheelchair_boarding":"\r","route_id":"7410","route_short_name":"A7-4"},{"stop_id":"20266","stop_code":"","stop_name":"Carrera 24 No. 59 - 45","stop_lat":"10.971383","stop_lon":"-74.802755","stop_url":"","location_type":"0","parent_station":"0","wheelchair_boarding":"\r","route_id":"7410","route_short_name":"A7-4"},{"stop_id":"20459","stop_code":"","stop_name":"Carrera 26 Con Calle 47C","stop_lat":"10.968803","stop_lon":"-74.793522","stop_url":"","location_type":"0","parent_station":"0","wheelchair_boarding":"\r","route_id":"7410","route_short_name":"A7-4"},{"stop_id":"20271","stop_code":"","stop_name":"Carrera 26 No. 47C-01","stop_lat":"10.968725","stop_lon":"-74.793432","stop_url":"","location_type":"0","parent_station":"0","wheelchair_boarding":"\r","route_id":"7410","route_short_name":"A7-4"},{"stop_id":"20242","stop_code":"","stop_name":"Carrera 26C7 No. 75B - 68","stop_lat":"10.979957","stop_lon":"-74.817132","stop_url":"","location_type":"0","parent_station":"0","wheelchair_boarding":"\r","route_id":"7410","route_short_name":"A7-4"},{"stop_id":"20458","stop_code":"","stop_name":"Carrera 27 Con Calle 45 Exito","stop_lat":"10.96973","stop_lon":"-74.790445","stop_url":"","location_type":"0","parent_station":"0","wheelchair_boarding":"\r","route_id":"7410","route_short_name":"A7-4"},{"stop_id":"20264","stop_code":"","stop_name":"Carrera 27 Con Calle 63 Esq","stop_lat":"10.975587","stop_lon":"-74.803722","stop_url":"","location_type":"0","parent_station":"0","wheelchair_boarding":"\r","route_id":"7410","route_short_name":"A7-4"},{"stop_id":"20262","stop_code":"","stop_name":"Carrera 27 No 68 - 149 Fren. Colegio Olaya","stop_lat":"10.976935","stop_lon":"-74.808147","stop_url":"","location_type":"0","parent_station":"0","wheelchair_boarding":"\r","route_id":"7410","route_short_name":"A7-4"},{"stop_id":"20263","stop_code":"","stop_name":"Carrera 27 No. 64 Esq","stop_lat":"10.975983","stop_lon":"-74.805577","stop_url":"","location_type":"0","parent_station":"0","wheelchair_boarding":"\r","route_id":"7410","route_short_name":"A7-4"},{"stop_id":"20240","stop_code":"","stop_name":"Carrera 27 No. 72 - 10","stop_lat":"10.97793","stop_lon":"-74.811912","stop_url":"","location_type":"0","parent_station":"0","wheelchair_boarding":"\r","route_id":"7410","route_short_name":"A7-4"},{"stop_id":"20261","stop_code":"","stop_name":"Carrera 27 No. 72 Frente Nom 72 - 04","stop_lat":"10.977868","stop_lon":"-74.811927","stop_url":"","location_type":"0","parent_station":"0","wheelchair_boarding":"\r","route_id":"7410","route_short_name":"A7-4"},{"stop_id":"20255","stop_code":"","stop_name":"Carrera 38 No. 76 - 106","stop_lat":"10.9869","stop_lon":"-74.81724","stop_url":"","location_type":"0","parent_station":"0","wheelchair_boarding":"\r","route_id":"7410","route_short_name":"A7-4"},{"stop_id":"17121","stop_code":"","stop_name":"Carrera 46 No. 76-109","stop_lat":"10.997237","stop_lon":"-74.810953","stop_url":"","location_type":"0","parent_station":"0","wheelchair_boarding":"\r","route_id":"7410","route_short_name":"A7-4"},{"stop_id":"20384","stop_code":"","stop_name":"Calle 80  Con Carrear 69 Esq.","stop_lat":"11.014148","stop_lon":"-74.80583","stop_url":"","location_type":"0","parent_station":"0","wheelchair_boarding":"\r","route_id":"8180","route_short_name":"A8-1"},{"stop_id":"20570","stop_code":"","stop_name":"Calle 80 No. 65 - 45","stop_lat":"11.01224","stop_lon":"-74.806352","stop_url":"","location_type":"0","parent_station":"0","wheelchair_boarding":"\r","route_id":"8180","route_short_name":"A8-1"},{"stop_id":"8072","stop_code":"","stop_name":"Calle 80 No. 72 - 43 Esq.","stop_lat":"11.016795","stop_lon":"-74.805148","stop_url":"","location_type":"0","parent_station":"0","wheelchair_boarding":"\r","route_id":"8180","route_short_name":"A8-1"},{"stop_id":"8075","stop_code":"","stop_name":"Calle 80 No. 75 - 25","stop_lat":"11.01863","stop_lon":"-74.804693","stop_url":"","location_type":"0","parent_station":"0","wheelchair_boarding":"\r","route_id":"8180","route_short_name":"A8-1"},{"stop_id":"8078","stop_code":"","stop_name":"Calle 80 No. 78 - 19","stop_lat":"11.02025","stop_lon":"-74.803633","stop_url":"","location_type":"0","parent_station":"0","wheelchair_boarding":"\r","route_id":"8180","route_short_name":"A8-1"},{"stop_id":"8246","stop_code":"","stop_name":"Calle 82 Con Carrera 47 Esq.","stop_lat":"11.00098","stop_lon":"-74.816577","stop_url":"","location_type":"0","parent_station":"0","wheelchair_boarding":"\r","route_id":"8180","route_short_name":"A8-1"},{"stop_id":"8251","stop_code":"","stop_name":"Calle 82 Con Carrera 51 Esq.","stop_lat":"11.004838","stop_lon":"-74.814117","stop_url":"","location_type":"0","parent_station":"0","wheelchair_boarding":"\r","route_id":"8180","route_short_name":"A8-1"},{"stop_id":"20385","stop_code":"","stop_name":"Calle 82 Con Carrera 56 Esq.","stop_lat":"11.00812","stop_lon":"-74.811997","stop_url":"","location_type":"0","parent_station":"0","wheelchair_boarding":"\r","route_id":"8180","route_short_name":"A8-1"},{"stop_id":"8259","stop_code":"","stop_name":"Calle 82 Con Carrera 59B Esq.","stop_lat":"11.011138","stop_lon":"-74.810875","stop_url":"","location_type":"0","parent_station":"0","wheelchair_boarding":"\r","route_id":"8180","route_short_name":"A8-1"},{"stop_id":"8252","stop_code":"","stop_name":"Calle 82 No. 52 - 61","stop_lat":"11.005705","stop_lon":"-74.813603","stop_url":"","location_type":"0","parent_station":"0","wheelchair_boarding":"\r","route_id":"8180","route_short_name":"A8-1"},{"stop_id":"8452","stop_code":"","stop_name":"Calle 84  No. 52 - 76","stop_lat":"11.00711","stop_lon":"-74.816629","stop_url":"","location_type":"0","parent_station":"0","wheelchair_boarding":"\r","route_id":"8180","route_short_name":"A8-1"},{"stop_id":"8447","stop_code":"","stop_name":"Calle 84 No. 47 - 54","stop_lat":"11.00277","stop_lon":"-74.818557","stop_url":"","location_type":"0","parent_station":"0","wheelchair_boarding":"\r","route_id":"8180","route_short_name":"A8-1"},{"stop_id":"20380","stop_code":"","stop_name":"Calle 84 No. 51 - 32 Macmondongo","stop_lat":"11.005383","stop_lon":"-74.817308","stop_url":"","location_type":"0","parent_station":"0","wheelchair_boarding":"\r","route_id":"8180","route_short_name":"A8-1"},{"stop_id":"8455","stop_code":"","stop_name":"Calle 84 No. 55 - 82","stop_lat":"11.00856","stop_lon":"-74.814133","stop_url":"","location_type":"0","parent_station":"0","wheelchair_boarding":"\r","route_id":"8180","route_short_name":"A8-1"},{"stop_id":"8459","stop_code":"","stop_name":"Calle 84 No. 59 - 40","stop_lat":"11.011007","stop_lon":"-74.81163","stop_url":"","location_type":"0","parent_station":"0","wheelchair_boarding":"\r","route_id":"8180","route_short_name":"A8-1"},{"stop_id":"20382","stop_code":"","stop_name":"Calle 85 Con Carrera 78A Esq.","stop_lat":"11.023615","stop_lon":"-74.806923","stop_url":"","location_type":"0","parent_station":"0","wheelchair_boarding":"\r","route_id":"8180","route_short_name":"A8-1"},{"stop_id":"8579","stop_code":"","stop_name":"Calle 85 No. 78D - 26 ","stop_lat":"11.024627","stop_lon":"-74.805728","stop_url":"","location_type":"0","parent_station":"0","wheelchair_boarding":"\r","route_id":"8180","route_short_name":"A8-1"},{"stop_id":"20569","stop_code":"","stop_name":"Calle 85 No. 81 - 32","stop_lat":"11.026025","stop_lon":"-74.804157","stop_url":"","location_type":"0","parent_station":"0","wheelchair_boarding":"\r","route_id":"8180","route_short_name":"A8-1"},{"stop_id":"20381","stop_code":"","stop_name":"Calle 86 Con Carrera 70 Villa Andalucia Ent. 2","stop_lat":"11.017378","stop_lon":"-74.812315","stop_url":"","location_type":"0","parent_station":"0","wheelchair_boarding":"\r","route_id":"8180","route_short_name":"A8-1"},{"stop_id":"20568","stop_code":"","stop_name":"Calle 86 Con Carrera 73 Esq","stop_lat":"11.018875","stop_lon":"-74.810955","stop_url":"","location_type":"0","parent_station":"0","wheelchair_boarding":"\r","route_id":"8180","route_short_name":"A8-1"},{"stop_id":"8673","stop_code":"","stop_name":"Calle 86 No. 73 - 218","stop_lat":"11.020403","stop_lon":"-74.809663","stop_url":"","location_type":"0","parent_station":"0","wheelchair_boarding":"\r","route_id":"8180","route_short_name":"A8-1"},{"stop_id":"8675","stop_code":"","stop_name":"Calle 86 No. 75C - 146","stop_lat":"11.021702","stop_lon":"-74.807692","stop_url":"","location_type":"0","parent_station":"0","wheelchair_boarding":"\r","route_id":"8180","route_short_name":"A8-1"},{"stop_id":"6480","stop_code":"","stop_name":"Carrera 64 No. 80 - 90","stop_lat":"11.01145","stop_lon":"-74.807532","stop_url":"","location_type":"0","parent_station":"0","wheelchair_boarding":"\r","route_id":"8180","route_short_name":"A8-1"},{"stop_id":"6585","stop_code":"","stop_name":"Carrera 65 Calle 85 Conj. Villa Andalucia","stop_lat":"11.015947","stop_lon":"-74.811937","stop_url":"","location_type":"0","parent_station":"0","wheelchair_boarding":"\r","route_id":"8180","route_short_name":"A8-1"},{"stop_id":"6584","stop_code":"","stop_name":"Carrera 65 No 84 - 52","stop_lat":"11.013717","stop_lon":"-74.810343","stop_url":"","location_type":"0","parent_station":"0","wheelchair_boarding":"\r","route_id":"8180","route_short_name":"A8-1"},{"stop_id":"20383","stop_code":"","stop_name":"Via 40 Con Calle 80","stop_lat":"11.023185","stop_lon":"-74.800988","stop_url":"","location_type":"0","parent_station":"0","wheelchair_boarding":"\r","route_id":"8180","route_short_name":"A8-1"},{"stop_id":"4080","stop_code":"","stop_name":"Via 40 No. 83 - 53","stop_lat":"11.025298","stop_lon":"-74.802958","stop_url":"","location_type":"0","parent_station":"0","wheelchair_boarding":"\r","route_id":"8180","route_short_name":"A8-1"},{"stop_id":"19166","stop_code":"","stop_name":"Calle 76 Con Carrera 49B","stop_lat":"10.999515","stop_lon":"-74.808557","stop_url":"","location_type":"0","parent_station":"0","wheelchair_boarding":"\r","route_id":"8201","route_short_name":"A8-2"},{"stop_id":"18217","stop_code":"","stop_name":"Calle 76 Con Carrera 53","stop_lat":"11.002982","stop_lon":"-74.805475","stop_url":"","location_type":"0","parent_station":"0","wheelchair_boarding":"\r","route_id":"8201","route_short_name":"A8-2"},{"stop_id":"18311","stop_code":"","stop_name":"Calle 76 Con Carrera 55","stop_lat":"11.004092","stop_lon":"-74.803937","stop_url":"","location_type":"0","parent_station":"0","wheelchair_boarding":"\r","route_id":"8201","route_short_name":"A8-2"},{"stop_id":"18216","stop_code":"","stop_name":"Calle 76 Con Carrera 57","stop_lat":"11.005315","stop_lon":"-74.80228","stop_url":"","location_type":"0","parent_station":"0","wheelchair_boarding":"\r","route_id":"8201","route_short_name":"A8-2"},{"stop_id":"18215","stop_code":"","stop_name":"Calle 76 Con Carrera 60","stop_lat":"11.007005","stop_lon":"-74.799925","stop_url":"","location_type":"0","parent_station":"0","wheelchair_boarding":"\r","route_id":"8201","route_short_name":"A8-2"},{"stop_id":"7668","stop_code":"","stop_name":"Calle 76 Con Carrera 68 Zoologico","stop_lat":"11.010262","stop_lon":"-74.797417","stop_url":"","location_type":"0","parent_station":"0","wheelchair_boarding":"\r","route_id":"8201","route_short_name":"A8-2"},{"stop_id":"18213","stop_code":"","stop_name":"Calle 76 Con Carrera 72","stop_lat":"11.012275","stop_lon":"-74.795943","stop_url":"","location_type":"0","parent_station":"0","wheelchair_boarding":"\r","route_id":"8201","route_short_name":"A8-2"},{"stop_id":"18212","stop_code":"","stop_name":"Calle 76 Con V\u00eda 40","stop_lat":"11.014287","stop_lon":"-74.794432","stop_url":"","location_type":"0","parent_station":"0","wheelchair_boarding":"\r","route_id":"8201","route_short_name":"A8-2"},{"stop_id":"18219","stop_code":"","stop_name":"Calle 76 No. 47 - 57","stop_lat":"10.997883","stop_lon":"-74.809325","stop_url":"","location_type":"0","parent_station":"0","wheelchair_boarding":"\r","route_id":"8201","route_short_name":"A8-2"},{"stop_id":"18218","stop_code":"","stop_name":"Calle 76 No. 50 - 13","stop_lat":"11.000677","stop_lon":"-74.808055","stop_url":"","location_type":"0","parent_station":"0","wheelchair_boarding":"\r","route_id":"8201","route_short_name":"A8-2"},{"stop_id":"18209","stop_code":"","stop_name":"Calle 77 Con Carrera 68","stop_lat":"11.011585","stop_lon":"-74.798637","stop_url":"","location_type":"0","parent_station":"0","wheelchair_boarding":"\r","route_id":"8201","route_short_name":"A8-2"},{"stop_id":"18210","stop_code":"","stop_name":"Calle 77 Con Carrera 71","stop_lat":"11.012723","stop_lon":"-74.797825","stop_url":"","location_type":"0","parent_station":"0","wheelchair_boarding":"\r","route_id":"8201","route_short_name":"A8-2"},{"stop_id":"18211","stop_code":"","stop_name":"Calle 77 Con V\u00eda 40","stop_lat":"11.015658","stop_lon":"-74.79568","stop_url":"","location_type":"0","parent_station":"0","wheelchair_boarding":"\r","route_id":"8201","route_short_name":"A8-2"},{"stop_id":"18208","stop_code":"","stop_name":"Calle 77 No. 62 - 40","stop_lat":"11.008762","stop_lon":"-74.800668","stop_url":"","location_type":"0","parent_station":"0","wheelchair_boarding":"\r","route_id":"8201","route_short_name":"A8-2"},{"stop_id":"18202","stop_code":"","stop_name":"Calle 79 No. 47 - 10","stop_lat":"10.99878","stop_lon":"-74.811612","stop_url":"","location_type":"0","parent_station":"0","wheelchair_boarding":"\r","route_id":"8201","route_short_name":"A8-2"},{"stop_id":"7951","stop_code":"","stop_name":"Calle 79 No. 51 - 62","stop_lat":"11.002337","stop_lon":"-74.809367","stop_url":"","location_type":"0","parent_station":"0","wheelchair_boarding":"\r","route_id":"8201","route_short_name":"A8-2"},{"stop_id":"7953","stop_code":"","stop_name":"Calle 79 No. 53 - 54","stop_lat":"11.004785","stop_lon":"-74.807912","stop_url":"","location_type":"0","parent_station":"0","wheelchair_boarding":"\r","route_id":"8201","route_short_name":"A8-2"},{"stop_id":"18205","stop_code":"","stop_name":"Calle 79 No. 55 - 154","stop_lat":"11.006527","stop_lon":"-74.80679","stop_url":"","location_type":"0","parent_station":"0","wheelchair_boarding":"\r","route_id":"8201","route_short_name":"A8-2"},{"stop_id":"18206","stop_code":"","stop_name":"Calle 79 No. 57 - 190","stop_lat":"11.008503","stop_lon":"-74.805203","stop_url":"","location_type":"0","parent_station":"0","wheelchair_boarding":"\r","route_id":"8201","route_short_name":"A8-2"},{"stop_id":"18207","stop_code":"","stop_name":"Carrera 60 Con Calle 77B","stop_lat":"11.008373","stop_lon":"-74.80206","stop_url":"","location_type":"0","parent_station":"0","wheelchair_boarding":"\r","route_id":"8201","route_short_name":"A8-2"},{"stop_id":"18303","stop_code":"","stop_name":"Calle 53 Con Carrera 52","stop_lat":"10.991605","stop_lon":"-74.789192","stop_url":"","location_type":"0","parent_station":"0","wheelchair_boarding":"\r","route_id":"38831","route_short_name":"A8-3"},{"stop_id":"18317","stop_code":"","stop_name":"Calle 54 Con Carrera 53","stop_lat":"10.992122","stop_lon":"-74.790332","stop_url":"","location_type":"0","parent_station":"0","wheelchair_boarding":"\r","route_id":"38831","route_short_name":"A8-3"},{"stop_id":"18304","stop_code":"","stop_name":"Carrera 54 Con Calle 54","stop_lat":"10.992878","stop_lon":"-74.790672","stop_url":"","location_type":"0","parent_station":"0","wheelchair_boarding":"\r","route_id":"38831","route_short_name":"A8-3"},{"stop_id":"18315","stop_code":"","stop_name":"Carrera 54 Con Calle 64","stop_lat":"10.995947","stop_lon":"-74.795302","stop_url":"","location_type":"0","parent_station":"0","wheelchair_boarding":"\r","route_id":"38831","route_short_name":"A8-3"},{"stop_id":"18316","stop_code":"","stop_name":"Carrera 54 No. 55 - 147","stop_lat":"10.99349","stop_lon":"-74.792297","stop_url":"","location_type":"0","parent_station":"0","wheelchair_boarding":"\r","route_id":"38831","route_short_name":"A8-3"},{"stop_id":"18305","stop_code":"","stop_name":"Carrera 54 No. 58 -78","stop_lat":"10.993478","stop_lon":"-74.79223","stop_url":"","location_type":"0","parent_station":"0","wheelchair_boarding":"\r","route_id":"38831","route_short_name":"A8-3"},{"stop_id":"18306","stop_code":"","stop_name":"Carrera 54 No. 59 - 144","stop_lat":"10.995495","stop_lon":"-74.79417","stop_url":"","location_type":"0","parent_station":"0","wheelchair_boarding":"\r","route_id":"38831","route_short_name":"A8-3"},{"stop_id":"18314","stop_code":"","stop_name":"Carrera 54 No. 68 - 189","stop_lat":"10.997763","stop_lon":"-74.799103","stop_url":"","location_type":"0","parent_station":"0","wheelchair_boarding":"\r","route_id":"38831","route_short_name":"A8-3"},{"stop_id":"18313","stop_code":"","stop_name":"Carrera 54 No. 72 - 73","stop_lat":"10.999658","stop_lon":"-74.802185","stop_url":"","location_type":"0","parent_station":"0","wheelchair_boarding":"\r","route_id":"38831","route_short_name":"A8-3"},{"stop_id":"18312","stop_code":"","stop_name":"Carrera 54 No. 75 - 119","stop_lat":"11.002838","stop_lon":"-74.804682","stop_url":"","location_type":"0","parent_station":"0","wheelchair_boarding":"\r","route_id":"38831","route_short_name":"A8-3"},{"stop_id":"18307","stop_code":"","stop_name":"Carrera 58 No. 64 - 162","stop_lat":"10.997355","stop_lon":"-74.795488","stop_url":"","location_type":"0","parent_station":"0","wheelchair_boarding":"\r","route_id":"38831","route_short_name":"A8-3"},{"stop_id":"18308","stop_code":"","stop_name":"Carrera 58 No. 70 - 66","stop_lat":"11.000753","stop_lon":"-74.798018","stop_url":"","location_type":"0","parent_station":"0","wheelchair_boarding":"\r","route_id":"38831","route_short_name":"A8-3"},{"stop_id":"18309","stop_code":"","stop_name":"Carrera 58 No. 74 - 138","stop_lat":"11.003948","stop_lon":"-74.800405","stop_url":"","location_type":"0","parent_station":"0","wheelchair_boarding":"\r","route_id":"38831","route_short_name":"A8-3"},{"stop_id":"19101","stop_code":"","stop_name":"Calle 74 No. 49B - 40","stop_lat":"10.99855","stop_lon":"-74.805238","stop_url":"","location_type":"0","parent_station":"0","wheelchair_boarding":"\r","route_id":"9301","route_short_name":"A9-3"},{"stop_id":"18400","stop_code":"","stop_name":"Calle 98 Con Carrera 52B Buenavista","stop_lat":"11.012738","stop_lon":"-74.827418","stop_url":"","location_type":"0","parent_station":"0","wheelchair_boarding":"\r","route_id":"9301","route_short_name":"A9-3"},{"stop_id":"19162","stop_code":"","stop_name":"Carrera 51B Con Calle 84","stop_lat":"11.005948","stop_lon":"-74.81763","stop_url":"","location_type":"0","parent_station":"0","wheelchair_boarding":"\r","route_id":"9301","route_short_name":"A9-3"},{"stop_id":"19161","stop_code":"","stop_name":"Carrera 51B Con Calle 86","stop_lat":"11.006927","stop_lon":"-74.819753","stop_url":"","location_type":"0","parent_station":"0","wheelchair_boarding":"\r","route_id":"9301","route_short_name":"A9-3"},{"stop_id":"19160","stop_code":"","stop_name":"Carrera 51B Con Calle 90","stop_lat":"11.008237","stop_lon":"-74.822572","stop_url":"","location_type":"0","parent_station":"0","wheelchair_boarding":"\r","route_id":"9301","route_short_name":"A9-3"},{"stop_id":"19165","stop_code":"","stop_name":"Carrera 51B No. 76 - 85","stop_lat":"11.002193","stop_lon":"-74.80799","stop_url":"","location_type":"0","parent_station":"0","wheelchair_boarding":"\r","route_id":"9301","route_short_name":"A9-3"},{"stop_id":"19164","stop_code":"","stop_name":"Carrera 51B No. 79 - 105","stop_lat":"11.003023","stop_lon":"-74.810265","stop_url":"","location_type":"0","parent_station":"0","wheelchair_boarding":"\r","route_id":"9301","route_short_name":"A9-3"},{"stop_id":"19163","stop_code":"","stop_name":"Carrera 51B No. 80 - 35","stop_lat":"11.004015","stop_lon":"-74.813225","stop_url":"","location_type":"0","parent_station":"0","wheelchair_boarding":"\r","route_id":"9301","route_short_name":"A9-3"},{"stop_id":"19159","stop_code":"","stop_name":"Carrera 51B No. 93 - 63","stop_lat":"11.009725","stop_lon":"-74.825715","stop_url":"","location_type":"0","parent_station":"0","wheelchair_boarding":"\r","route_id":"9301","route_short_name":"A9-3"},{"stop_id":"19158","stop_code":"","stop_name":"Carrera 51B No. 96A - 73","stop_lat":"11.01076","stop_lon":"-74.8279","stop_url":"","location_type":"0","parent_station":"0","wheelchair_boarding":"\r","route_id":"9301","route_short_name":"A9-3"},{"stop_id":"19104","stop_code":"","stop_name":"Carrera 53 Con Calle 78 Villa Country","stop_lat":"11.003743","stop_lon":"-74.806597","stop_url":"","location_type":"0","parent_station":"0","wheelchair_boarding":"\r","route_id":"9301","route_short_name":"A9-3"},{"stop_id":"19105","stop_code":"","stop_name":"Carrera 53 Con Calle 80","stop_lat":"11.005328","stop_lon":"-74.810978","stop_url":"","location_type":"0","parent_station":"0","wheelchair_boarding":"\r","route_id":"9301","route_short_name":"A9-3"},{"stop_id":"19106","stop_code":"","stop_name":"Carrera 53 Con Calle 82","stop_lat":"11.006475","stop_lon":"-74.814095","stop_url":"","location_type":"0","parent_station":"0","wheelchair_boarding":"\r","route_id":"9301","route_short_name":"A9-3"},{"stop_id":"19108","stop_code":"","stop_name":"Carrera 53 Con Calle 85","stop_lat":"11.008348","stop_lon":"-74.817602","stop_url":"","location_type":"0","parent_station":"0","wheelchair_boarding":"\r","route_id":"9301","route_short_name":"A9-3"},{"stop_id":"19109","stop_code":"","stop_name":"Carrera 53 Con Calle 89","stop_lat":"11.010818","stop_lon":"-74.819605","stop_url":"","location_type":"0","parent_station":"0","wheelchair_boarding":"\r","route_id":"9301","route_short_name":"A9-3"},{"stop_id":"19111","stop_code":"","stop_name":"Carrera 53 Con Calle 94","stop_lat":"11.013023","stop_lon":"-74.823975","stop_url":"","location_type":"0","parent_station":"0","wheelchair_boarding":"\r","route_id":"9301","route_short_name":"A9-3"},{"stop_id":"19107","stop_code":"","stop_name":"Carrera 53 No. 82 - 268","stop_lat":"11.00714","stop_lon":"-74.815575","stop_url":"","location_type":"0","parent_station":"0","wheelchair_boarding":"\r","route_id":"9301","route_short_name":"A9-3"},{"stop_id":"19110","stop_code":"","stop_name":"Carrera 53 No. 91 - 60","stop_lat":"11.012323","stop_lon":"-74.822093","stop_url":"","location_type":"0","parent_station":"0","wheelchair_boarding":"\r","route_id":"9301","route_short_name":"A9-3"},{"stop_id":"9157","stop_code":"","stop_name":"Carrera 54 Con Calle 74","stop_lat":"11.000818","stop_lon":"-74.803025","stop_url":"","location_type":"0","parent_station":"0","wheelchair_boarding":"\r","route_id":"9301","route_short_name":"A9-3"},{"stop_id":"9156","stop_code":"","stop_name":"Carrera 54 No. 75 - 56","stop_lat":"11.002463","stop_lon":"-74.80423","stop_url":"","location_type":"0","parent_station":"0","wheelchair_boarding":"\r","route_id":"9301","route_short_name":"A9-3"},{"stop_id":"17132","stop_code":"","stop_name":"Calle 93 Con Carrera 45B","stop_lat":"11.004145","stop_lon":"-74.827102","stop_url":"","location_type":"0","parent_station":"0","wheelchair_boarding":"\r","route_id":"9401","route_short_name":"A9-4"},{"stop_id":"17131","stop_code":"","stop_name":"Calle 93 Con Carrera 49C","stop_lat":"11.00661","stop_lon":"-74.826237","stop_url":"","location_type":"0","parent_station":"0","wheelchair_boarding":"\r","route_id":"9401","route_short_name":"A9-4"},{"stop_id":"20473","stop_code":"","stop_name":"Calle 98 Con Carrera 47","stop_lat":"11.007857","stop_lon":"-74.830443","stop_url":"","location_type":"0","parent_station":"0","wheelchair_boarding":"\r","route_id":"9401","route_short_name":"A9-4"},{"stop_id":"20474","stop_code":"","stop_name":"Calle 98 Con Carrera 51","stop_lat":"11.0096","stop_lon":"-74.829573","stop_url":"","location_type":"0","parent_station":"0","wheelchair_boarding":"\r","route_id":"9401","route_short_name":"A9-4"},{"stop_id":"17129","stop_code":"","stop_name":"Calle 100 Con Carrera 44","stop_lat":"11.006995","stop_lon":"-74.834242","stop_url":"","location_type":"0","parent_station":"0","wheelchair_boarding":"\r","route_id":"3030","route_short_name":"U30"},{"stop_id":"17105","stop_code":"","stop_name":"Carrera 46 Con Calle 90 Uniautonoma","stop_lat":"11.00344","stop_lon":"-74.824065","stop_url":"","location_type":"0","parent_station":"0","wheelchair_boarding":"\r","route_id":"3030","route_short_name":"U30"},{"stop_id":"20566","stop_code":"","stop_name":"Carrera 46 Con Calle 90 Uniautonoma Sur","stop_lat":"11.003378","stop_lon":"-74.824262","stop_url":"","location_type":"0","parent_station":"0","wheelchair_boarding":"\r","route_id":"3030","route_short_name":"U30"},{"stop_id":"4676","stop_code":"","stop_name":"Carrera 46 No 76 - 109","stop_lat":"10.997287","stop_lon":"-74.810998","stop_url":"","location_type":"0","parent_station":"0","wheelchair_boarding":"\r","route_id":"3030","route_short_name":"U30"},{"stop_id":"4680","stop_code":"","stop_name":"Carrera 46 No 80 - 211","stop_lat":"11.000155","stop_lon":"-74.816007","stop_url":"","location_type":"0","parent_station":"0","wheelchair_boarding":"\r","route_id":"3030","route_short_name":"U30"},{"stop_id":"20397","stop_code":"","stop_name":"Carrera 46 No 94 - 11","stop_lat":"11.005008","stop_lon":"-74.82777","stop_url":"","location_type":"0","parent_station":"0","wheelchair_boarding":"\r","route_id":"3030","route_short_name":"U30"},{"stop_id":"17101","stop_code":"","stop_name":"Carrera 46 No. 76 - 68","stop_lat":"10.99712","stop_lon":"-74.81069","stop_url":"","location_type":"0","parent_station":"0","wheelchair_boarding":"\r","route_id":"3030","route_short_name":"U30"},{"stop_id":"17102","stop_code":"","stop_name":"Carrera 46 No. 79 - 204","stop_lat":"10.998975","stop_lon":"-74.813827","stop_url":"","location_type":"0","parent_station":"0","wheelchair_boarding":"\r","route_id":"3030","route_short_name":"U30"},